$GPRMC,060601.00,A,4855.88917,N,00203.09727,E,0.707,,070120,,,A*7C

$GPVTG,,T,,M,0.707,N,1.310,K,A*20

$GPGGA,060601.00,4855.88917,N,00203.09727,E,1,04,2.10,44.7,M,46.1,M,,*67

$GPGSA,A,2,01,11,17,03,,,,,,,,,2.32,2.10,1.00*06

$GPGSV,3,1,10,01,43,129,31,03,78,041,24,04,56,174,19,06,20,305,14*71

$GPGSV,3,2,10,09,29,201,,11,23,155,27,12,04,341,26,14,15,042,18*76

$GPGSV,3,3,10,17,47,264,36,31,20,061,27*7A

$GPGLL,4855.88917,N,00203.09727,E,060601.00,A,A*61

$GPRMC,060602.00,A,4855.88895,N,00203.09719,E,0.537,,070120,,,A*78

$GPVTG,,T,,M,0.537,N,0.994,K,A*26

$GPGGA,060602.00,4855.88895,N,00203.09719,E,1,05,2.10,44.7,M,46.1,M,,*63

$GPGSA,A,2,01,11,17,09,03,,,,,,,,2.32,2.10,1.00*0F

$GPGSV,3,1,10,01,43,129,31,03,78,041,25,04,56,174,19,06,20,305,16*72

$GPGSV,3,2,10,09,29,201,17,11,23,155,27,12,04,341,27,14,15,042,16*7F

$GPGSV,3,3,10,17,47,264,36,31,20,061,26*7B

$GPGLL,4855.88895,N,00203.09719,E,060602.00,A,A*64

$GPRMC,060603.00,A,4855.88879,N,00203.09720,E,0.485,,070120,,,A*79

$GPVTG,,T,,M,0.485,N,0.898,K,A*23

$GPGGA,060603.00,4855.88879,N,00203.09720,E,1,04,2.10,44.7,M,46.1,M,,*6B

$GPGSA,A,2,01,11,17,03,,,,,,,,,2.32,2.10,1.00*06

$GPGSV,3,1,10,01,43,129,27,03,78,041,26,04,56,174,16,06,20,305,19*76

$GPGSV,3,2,10,09,29,201,17,11,23,155,27,12,04,341,27,14,15,042,17*7E

$GPGSV,3,3,10,17,47,264,36,31,20,061,27*7A

$GPGLL,4855.88879,N,00203.09720,E,060603.00,A,A*6D

$GPRMC,060604.00,A,4855.88868,N,00203.09712,E,0.412,,070120,,,A*71

$GPVTG,,T,,M,0.412,N,0.763,K,A*26

$GPGGA,060604.00,4855.88868,N,00203.09712,E,1,05,2.10,44.7,M,46.1,M,,*6C

$GPGSA,A,2,01,11,17,09,03,,,,,,,,2.32,2.10,1.00*0F

$GPGSV,3,1,10,01,43,129,30,03,78,041,26,04,56,174,12,06,20,305,19*74

$GPGSV,3,2,10,09,29,201,17,11,23,155,27,12,04,341,27,14,15,042,17*7E

$GPGSV,3,3,10,17,47,264,36,31,20,061,27*7A

$GPGLL,4855.88868,N,00203.09712,E,060604.00,A,A*6B

$GPRMC,060605.00,A,4855.88846,N,00203.09701,E,0.306,,070120,,,A*7C

$GPVTG,,T,,M,0.306,N,0.566,K,A*23

$GPGGA,060605.00,4855.88846,N,00203.09701,E,1,05,2.10,44.7,M,46.1,M,,*63

$GPGSA,A,2,01,11,17,09,03,,,,,,,,2.32,2.10,1.00*0F

$GPGSV,3,1,10,01,43,129,31,03,78,041,26,04,56,174,11,06,20,305,19*76

$GPGSV,3,2,10,09,29,201,17,11,23,155,28,12,04,341,26,14,15,042,17*70

$GPGSV,3,3,10,17,47,264,36,31,20,061,28*75

$GPGLL,4855.88846,N,00203.09701,E,060605.00,A,A*64

$GPRMC,060606.00,A,4855.88847,N,00203.09697,E,0.299,,070120,,,A*77

$GPVTG,,T,,M,0.299,N,0.555,K,A*24

$GPGGA,060606.00,4855.88847,N,00203.09697,E,1,05,4.97,44.7,M,46.1,M,,*66

$GPGSA,A,3,01,11,17,09,03,,,,,,,,10.38,4.97,9.11*36

$GPGSV,3,1,10,01,43,129,31,03,78,041,26,04,56,174,10,06,20,305,19*77

$GPGSV,3,2,10,09,29,201,18,11,23,155,28,12,04,341,27,14,15,042,18*71

$GPGSV,3,3,10,17,47,264,36,31,20,061,28*75

$GPGLL,4855.88847,N,00203.09697,E,060606.00,A,A*68

$GPRMC,060607.00,A,4855.88846,N,00203.09700,E,0.252,,070120,,,A*7F

$GPVTG,,T,,M,0.252,N,0.467,K,A*23

$GPGGA,060607.00,4855.88846,N,00203.09700,E,1,05,4.97,44.7,M,46.1,M,,*69

$GPGSA,A,3,01,11,17,09,03,,,,,,,,10.37,4.97,9.11*39

$GPGSV,3,1,10,01,43,129,31,03,78,043,26,04,56,174,08,06,20,305,18*7D

$GPGSV,3,2,10,09,29,201,18,11,23,155,28,12,04,341,26,14,15,042,18*70

$GPGSV,3,3,10,17,47,264,37,31,20,061,28*74

$GPGLL,4855.88846,N,00203.09700,E,060607.00,A,A*67

$GPRMC,060608.00,A,4855.88866,N,00203.09704,E,0.322,,070120,,,A*70

$GPVTG,,T,,M,0.322,N,0.597,K,A*2B

$GPGGA,060608.00,4855.88866,N,00203.09704,E,1,05,4.96,44.7,M,46.1,M,,*61

$GPGSA,A,3,01,11,17,09,03,,,,,,,,10.37,4.96,9.10*39

$GPGSV,3,1,10,01,43,129,31,03,78,043,26,04,56,174,08,06,20,305,19*7C

$GPGSV,3,2,10,09,29,201,19,11,23,155,28,12,04,341,26,14,15,042,19*70

$GPGSV,3,3,10,17,47,264,36,31,20,061,28*75

$GPGLL,4855.88866,N,00203.09704,E,060608.00,A,A*6E

$GPRMC,060609.00,A,4855.88900,N,00203.09721,E,0.687,,070120,,,A*7D

$GPVTG,,T,,M,0.687,N,1.272,K,A*2C

$GPGGA,060609.00,4855.88900,N,00203.09721,E,1,05,4.96,44.7,M,46.1,M,,*66

$GPGSA,A,3,01,11,17,09,03,,,,,,,,10.36,4.96,9.10*38

$GPGSV,3,1,10,01,43,129,31,03,78,043,27,04,56,174,08,06,20,305,19*7D

$GPGSV,3,2,10,09,29,201,18,11,23,155,28,12,04,341,26,14,15,042,19*71

$GPGSV,3,3,10,17,47,264,37,31,20,061,28*74

$GPGLL,4855.88900,N,00203.09721,E,060609.00,A,A*69

$GPRMC,060607.00,A,4855.88906,N,00203.09721,E,0.492,,070120,,,A*73

$GPVTG,,T,,M,0.492,N,0.910,K,A*24

$GPGGA,060607.00,4855.88906,N,00203.09721,E,1,05,4.96,44.7,M,46.1,M,,*6E

$GPGSA,A,3,01,11,17,09,03,,,,,,,,10.36,4.96,9.09*30

$GPGSV,3,1,11,01,43,129,31,03,78,043,27,04,56,174,08,06,21,305,19*7D

$GPGSV,3,2,11,09,29,201,19,11,23,155,28,12,04,341,26,14,15,042,19*71

$GPGSV,3,3,11,17,47,264,37,18,,,33,31,20,061,28*7C

$GPGLL,4855.88906,N,00203.09721,E,060607.00,A,A*61

$GPRMC,060608.00,A,4855.88925,N,00203.09724,E,0.500,,070120,,,A*72

$GPVTG,,T,,M,0.500,N,0.926,K,A*2B

$GPGGA,060608.00,4855.88925,N,00203.09724,E,1,05,4.96,44.7,M,46.1,M,,*65

$GPGSA,A,3,01,11,17,09,03,,,,,,,,10.35,4.96,9.09*33

$GPGSV,3,1,11,01,43,129,31,03,78,043,27,04,56,174,09,06,21,305,18*7D

$GPGSV,3,2,11,09,29,201,19,11,23,155,28,12,04,341,26,14,15,042,18*70

$GPGSV,3,3,11,17,47,264,37,18,,,32,31,20,061,28*7D

$GPGLL,4855.88925,N,00203.09724,E,060608.00,A,A*6A

$GPRMC,060609.00,A,4855.88929,N,00203.09728,E,0.386,,070120,,,A*7B

$GPVTG,,T,,M,0.386,N,0.714,K,A*2C

$GPGGA,060609.00,4855.88929,N,00203.09728,E,1,05,4.95,44.7,M,46.1,M,,*67

$GPGSA,A,3,01,11,17,09,03,,,,,,,,10.34,4.95,9.08*30

$GPGSV,3,1,11,01,43,129,31,03,78,043,27,04,56,174,09,06,21,305,18*7D

$GPGSV,3,2,11,09,29,201,18,11,23,155,28,12,04,341,26,14,15,042,19*70

$GPGSV,3,3,11,17,47,264,36,18,,,32,31,20,061,28*7C

$GPGLL,4855.88929,N,00203.09728,E,060609.00,A,A*6B

$GPRMC,060610.00,A,4855.88936,N,00203.09734,E,0.377,,070120,,,A*7E

$GPVTG,,T,,M,0.377,N,0.698,K,A*27

$GPGGA,060610.00,4855.88936,N,00203.09734,E,1,05,4.95,44.7,M,46.1,M,,*6C

$GPGSA,A,3,01,11,17,09,03,,,,,,,,10.34,4.95,9.08*30

$GPGSV,3,1,11,01,43,129,31,03,78,043,27,04,56,174,09,06,21,305,18*7D

$GPGSV,3,2,11,09,29,201,19,11,23,155,28,12,04,341,26,14,15,042,19*71

$GPGSV,3,3,11,17,47,264,37,18,,,32,31,20,061,28*7D

$GPGLL,4855.88936,N,00203.09734,E,060610.00,A,A*60

$GPRMC,060611.00,A,4855.88925,N,00203.09725,E,0.144,,070120,,,A*7F

$GPVTG,,T,,M,0.144,N,0.267,K,A*21

$GPGGA,060611.00,4855.88925,N,00203.09725,E,1,05,4.95,44.7,M,46.1,M,,*6F

$GPGSA,A,3,01,11,17,09,03,,,,,,,,10.33,4.95,9.07*38

$GPGSV,3,1,11,01,43,129,31,03,78,043,27,04,56,174,09,06,21,305,19*7C

$GPGSV,3,2,11,09,29,201,19,11,23,155,28,12,04,341,27,14,15,042,19*70

$GPGSV,3,3,11,17,47,264,37,18,,,32,31,20,061,27*72

$GPGLL,4855.88925,N,00203.09725,E,060611.00,A,A*63

$GPRMC,060612.00,A,4855.88923,N,00203.09719,E,0.008,,070120,,,A*7C

$GPVTG,,T,,M,0.008,N,0.015,K,A*2F

$GPGGA,060612.00,4855.88923,N,00203.09719,E,1,05,4.94,44.7,M,46.1,M,,*64

$GPGSA,A,3,01,11,17,09,03,,,,,,,,10.32,4.94,9.06*39

$GPGSV,3,1,11,01,43,129,30,03,78,043,27,04,56,174,09,06,21,305,18*7C

$GPGSV,3,2,11,09,29,201,20,11,23,155,28,12,04,341,27,14,15,042,20*70

$GPGSV,3,3,11,17,47,264,37,18,,,32,31,20,061,28*7D

$GPGLL,4855.88923,N,00203.09719,E,060612.00,A,A*69

$GPRMC,060613.00,A,4855.88925,N,00203.09708,E,0.188,,070120,,,A*72

$GPVTG,,T,,M,0.188,N,0.347,K,A*22

$GPGGA,060613.00,4855.88925,N,00203.09708,E,1,05,4.94,44.7,M,46.1,M,,*63

$GPGSA,A,3,01,11,17,09,03,,,,,,,,10.32,4.94,9.06*39

$GPGSV,3,1,11,01,43,129,30,03,78,043,27,04,56,174,,06,21,305,18*75

$GPGSV,3,2,11,09,29,201,19,11,23,155,28,12,04,340,26,14,15,042,20*7A

$GPGSV,3,3,11,17,47,264,37,18,,,32,31,20,061,28*7D

$GPGLL,4855.88925,N,00203.09708,E,060613.00,A,A*6E

$GPRMC,060614.00,A,4855.88929,N,00203.09704,E,0.144,,070120,,,A*75

$GPVTG,,T,,M,0.144,N,0.266,K,A*20

$GPGGA,060614.00,4855.88929,N,00203.09704,E,1,05,4.94,44.7,M,46.1,M,,*64

$GPGSA,A,3,01,11,17,09,03,,,,,,,,10.31,4.94,9.05*39

$GPGSV,3,1,11,01,43,129,30,03,78,043,27,04,56,174,,06,21,305,18*75

$GPGSV,3,2,11,09,29,201,20,11,23,155,28,12,04,340,26,14,15,042,20*70

$GPGSV,3,3,11,17,47,264,37,18,,,33,31,20,061,27*73

$GPGLL,4855.88929,N,00203.09704,E,060614.00,A,A*69

$GPRMC,060615.00,A,4855.88928,N,00203.09707,E,0.059,,070120,,,A*7B

$GPVTG,,T,,M,0.059,N,0.109,K,A*27

$GPGGA,060615.00,4855.88928,N,00203.09707,E,1,05,4.93,44.7,M,46.1,M,,*60

$GPGSA,A,3,01,11,17,09,03,,,,,,,,10.31,4.93,9.05*3E

$GPGSV,3,1,11,01,43,129,30,03,78,043,27,04,56,174,,06,21,305,18*75

$GPGSV,3,2,11,09,29,201,20,11,23,155,28,12,04,340,27,14,15,042,20*71

$GPGSV,3,3,11,17,47,264,37,18,,,33,31,20,061,27*73

$GPGLL,4855.88928,N,00203.09707,E,060615.00,A,A*6A

$GPRMC,060616.00,A,4855.88939,N,00203.09706,E,0.171,,070120,,,A*72

$GPVTG,,T,,M,0.171,N,0.316,K,A*20

$GPGGA,060616.00,4855.88939,N,00203.09706,E,1,05,4.93,44.7,M,46.1,M,,*62

$GPGSA,A,3,01,11,17,09,03,,,,,,,,10.30,4.93,9.04*3E

$GPGSV,3,1,11,01,43,129,30,03,78,043,27,04,56,174,,06,21,305,18*75

$GPGSV,3,2,11,09,29,201,20,11,23,155,28,12,04,340,27,14,15,042,20*71

$GPGSV,3,3,11,17,47,264,37,18,,,33,31,20,061,27*73

$GPGLL,4855.88939,N,00203.09706,E,060616.00,A,A*68

$GPRMC,060617.00,A,4855.88939,N,00203.09700,E,0.128,,070120,,,A*79

$GPVTG,,T,,M,0.128,N,0.237,K,A*2E

$GPGGA,060617.00,4855.88939,N,00203.09700,E,1,05,4.93,44.7,M,46.1,M,,*65

$GPGSA,A,3,01,11,17,09,03,,,,,,,,10.29,4.93,9.04*36

$GPGSV,3,1,11,01,43,129,30,03,78,043,27,04,56,174,,06,21,305,17*7A

$GPGSV,3,2,11,09,29,201,20,11,23,155,28,12,04,340,27,14,15,042,20*71

$GPGSV,3,3,11,17,47,264,37,18,,,32,31,20,061,27*72

$GPGLL,4855.88939,N,00203.09700,E,060617.00,A,A*6F

$GPRMC,060618.00,A,4855.88952,N,00203.09703,E,0.217,,070120,,,A*77

$GPVTG,,T,,M,0.217,N,0.401,K,A*22

$GPGGA,060618.00,4855.88952,N,00203.09703,E,1,05,4.93,44.6,M,46.1,M,,*65

$GPGSA,A,3,01,11,17,09,03,,,,,,,,10.29,4.93,9.03*31

$GPGSV,3,1,11,01,43,129,30,03,78,043,26,04,56,174,,06,21,305,17*7B

$GPGSV,3,2,11,09,29,201,19,11,23,155,28,12,04,340,27,14,15,042,20*7B

$GPGSV,3,3,11,17,47,264,37,18,,,33,31,20,061,28*7C

$GPGLL,4855.88952,N,00203.09703,E,060618.00,A,A*6E

$GPRMC,060619.00,A,4855.88964,N,00203.09708,E,0.299,,070120,,,A*7E

$GPVTG,,T,,M,0.299,N,0.553,K,A*22

$GPGGA,060619.00,4855.88964,N,00203.09708,E,1,05,4.92,44.6,M,46.1,M,,*6B

$GPGSA,A,3,01,11,17,09,03,,,,,,,,10.28,4.92,9.03*31

$GPGSV,3,1,11,01,43,129,30,03,78,043,26,04,56,174,,06,21,305,18*74

$GPGSV,3,2,11,09,29,201,19,11,23,155,28,12,04,340,27,14,15,042,21*7A

$GPGSV,3,3,11,17,47,264,37,18,,,33,31,20,061,27*73

$GPGLL,4855.88964,N,00203.09708,E,060619.00,A,A*61

$GPRMC,060620.00,A,4855.88983,N,00203.09719,E,0.421,,070120,,,A*78

$GPVTG,,T,,M,0.421,N,0.779,K,A*2D

$GPGGA,060620.00,4855.88983,N,00203.09719,E,1,05,4.92,44.6,M,46.1,M,,*68

$GPGSA,A,3,01,11,17,09,03,,,,,,,,10.27,4.92,9.02*3F

$GPGSV,3,1,11,01,43,129,30,03,78,043,26,04,56,174,,06,21,305,18*74

$GPGSV,3,2,11,09,29,201,19,11,23,155,28,12,04,340,27,14,15,042,21*7A

$GPGSV,3,3,11,17,47,264,37,18,,,32,31,20,061,27*72

$GPGLL,4855.88983,N,00203.09719,E,060620.00,A,A*62

$GPRMC,060621.00,A,4855.88991,N,00203.09725,E,0.331,,070120,,,A*73

$GPVTG,,T,,M,0.331,N,0.613,K,A*26

$GPGGA,060621.00,4855.88991,N,00203.09725,E,1,05,4.92,44.6,M,46.1,M,,*65

$GPGSA,A,3,01,11,17,09,03,,,,,,,,10.27,4.92,9.01*3C

$GPGSV,3,1,11,01,43,129,30,03,78,043,25,04,56,174,,06,21,305,19*76

$GPGSV,3,2,11,09,29,201,19,11,23,155,28,12,04,340,27,14,15,042,21*7A

$GPGSV,3,3,11,17,47,264,37,18,,,33,31,20,061,28*7C

$GPGLL,4855.88991,N,00203.09725,E,060621.00,A,A*6F

$GPRMC,060622.00,A,4855.89009,N,00203.09732,E,0.425,,070120,,,A*7D

$GPVTG,,T,,M,0.425,N,0.787,K,A*28

$GPGGA,060622.00,4855.89009,N,00203.09732,E,1,05,4.91,44.6,M,46.1,M,,*6A

$GPGSA,A,3,01,11,17,09,03,,,,,,,,10.26,4.91,9.01*3E

$GPGSV,3,1,11,01,43,129,30,03,78,043,25,04,56,174,,06,21,305,18*77

$GPGSV,3,2,11,09,29,201,19,11,23,155,28,12,04,340,27,14,15,042,22*79

$GPGSV,3,3,11,17,47,264,37,18,,,33,31,20,061,27*73

$GPGLL,4855.89009,N,00203.09732,E,060622.00,A,A*63

$GPRMC,060623.00,A,4855.89022,N,00203.09739,E,0.411,,070120,,,A*79

$GPVTG,,T,,M,0.411,N,0.762,K,A*24

$GPGGA,060623.00,4855.89022,N,00203.09739,E,1,05,4.91,44.6,M,46.1,M,,*69

$GPGSA,A,3,01,11,17,09,03,,,,,,,,10.26,4.91,9.00*3F

$GPGSV,3,1,11,01,43,129,30,03,78,043,24,04,56,174,,06,21,305,17*79

$GPGSV,3,2,11,09,29,201,18,11,23,155,28,12,04,340,27,14,15,042,22*78

$GPGSV,3,3,11,17,47,264,37,18,,,33,31,20,061,27*73

$GPGLL,4855.89022,N,00203.09739,E,060623.00,A,A*60

$GPRMC,060624.00,A,4855.89021,N,00203.09739,E,0.263,,070120,,,A*7E

$GPVTG,,T,,M,0.263,N,0.487,K,A*2F

$GPGGA,060624.00,4855.89021,N,00203.09739,E,1,05,4.91,44.6,M,46.1,M,,*6D

$GPGSA,A,3,01,11,17,09,03,,,,,,,,10.25,4.91,9.00*3C

$GPGSV,3,1,11,01,43,129,30,03,78,043,24,04,56,174,,06,21,305,17*79

$GPGSV,3,2,11,09,29,201,19,11,23,155,28,12,04,340,26,14,15,042,21*7B

$GPGSV,3,3,11,17,47,264,37,18,,,33,31,20,061,27*73

$GPGLL,4855.89021,N,00203.09739,E,060624.00,A,A*64

$GPRMC,060625.00,A,4855.89075,N,00203.09784,E,0.317,,070120,,,A*7A

$GPVTG,,T,,M,0.317,N,0.587,K,A*2C

$GPGGA,060625.00,4855.89075,N,00203.09784,E,1,06,1.32,44.6,M,46.1,M,,*64

$GPGSA,A,3,01,31,11,17,09,03,,,,,,,2.55,1.32,2.18*04

$GPGSV,3,1,11,01,43,129,30,03,78,043,24,04,56,174,,06,21,305,18*76

$GPGSV,3,2,11,09,29,201,19,11,23,155,28,12,04,340,27,14,15,042,21*7A

$GPGSV,3,3,11,17,47,264,37,18,,,33,31,20,060,27*72

$GPGLL,4855.89075,N,00203.09784,E,060625.00,A,A*62

$GPRMC,060626.00,A,4855.89110,N,00203.09813,E,0.242,,070120,,,A*7B

$GPVTG,,T,,M,0.242,N,0.449,K,A*2E

$GPGGA,060626.00,4855.89110,N,00203.09813,E,1,06,1.32,44.5,M,46.1,M,,*67

$GPGSA,A,3,01,31,11,17,09,03,,,,,,,2.55,1.32,2.18*04

$GPGSV,3,1,11,01,43,129,30,03,78,043,24,04,56,174,14,06,21,305,19*72

$GPGSV,3,2,11,09,29,201,18,11,23,155,28,12,04,340,26,14,15,042,21*7A

$GPGSV,3,3,11,17,47,264,37,18,,,33,31,20,060,27*72

$GPGLL,4855.89110,N,00203.09813,E,060626.00,A,A*62

$GPRMC,060627.00,A,4855.89129,N,00203.09833,E,0.084,,070120,,,A*7A

$GPVTG,,T,,M,0.084,N,0.156,K,A*2D

$GPGGA,060627.00,4855.89129,N,00203.09833,E,1,06,1.32,44.5,M,46.1,M,,*6E

$GPGSA,A,3,01,31,11,17,09,03,,,,,,,2.55,1.32,2.18*04

$GPGSV,3,1,11,01,43,129,30,03,78,043,25,04,56,174,12,06,21,305,18*74

$GPGSV,3,2,11,09,29,201,18,11,23,155,28,12,04,340,26,14,15,042,21*7A

$GPGSV,3,3,11,17,47,264,37,18,,,33,31,20,060,27*72

$GPGLL,4855.89129,N,00203.09833,E,060627.00,A,A*6B

$GPRMC,060628.00,A,4855.89145,N,00203.09847,E,0.070,,070120,,,A*77

$GPVTG,,T,,M,0.070,N,0.130,K,A*26

$GPGGA,060628.00,4855.89145,N,00203.09847,E,1,06,1.32,44.5,M,46.1,M,,*68

$GPGSA,A,3,01,31,11,17,09,03,,,,,,,2.55,1.32,2.18*04

$GPGSV,3,1,11,01,43,129,30,03,78,043,25,04,56,174,10,06,21,305,19*77

$GPGSV,3,2,11,09,29,201,18,11,23,155,28,12,04,340,26,14,15,042,22*79

$GPGSV,3,3,11,17,47,264,37,18,,,33,31,20,060,26*73

$GPGLL,4855.89145,N,00203.09847,E,060628.00,A,A*6D

$GPRMC,060629.00,A,4855.89163,N,00203.09861,E,0.127,,070120,,,A*75

$GPVTG,,T,,M,0.127,N,0.235,K,A*23

$GPGGA,060629.00,4855.89163,N,00203.09861,E,1,06,1.32,44.4,M,46.1,M,,*68

$GPGSA,A,3,01,31,11,17,09,03,,,,,,,2.55,1.32,2.18*04

$GPGSV,3,1,11,01,43,129,30,03,78,043,25,04,56,174,12,06,21,305,19*75

$GPGSV,3,2,11,09,29,201,18,11,23,155,28,12,04,340,26,14,15,042,22*79

$GPGSV,3,3,11,17,47,264,37,18,,,33,31,20,060,27*72

$GPGLL,4855.89163,N,00203.09861,E,060629.00,A,A*6C

$GPRMC,060630.00,A,4855.89163,N,00203.09885,E,0.346,,070120,,,A*72

$GPVTG,,T,,M,0.346,N,0.640,K,A*20

$GPGGA,060630.00,4855.89163,N,00203.09885,E,1,06,1.32,44.4,M,46.1,M,,*6A

$GPGSA,A,3,01,31,11,17,09,03,,,,,,,2.55,1.32,2.18*04

$GPGSV,3,1,11,01,43,129,30,03,78,043,26,04,56,174,13,06,21,305,18*76

$GPGSV,3,2,11,09,29,201,19,11,23,155,28,12,04,340,26,14,15,042,22*78

$GPGSV,3,3,11,17,47,264,37,18,,,33,31,20,060,27*72

$GPGLL,4855.89163,N,00203.09885,E,060630.00,A,A*6E

$GPRMC,060631.00,A,4855.89164,N,00203.09901,E,0.288,,070120,,,A*7A

$GPVTG,,T,,M,0.288,N,0.534,K,A*23

$GPGGA,060631.00,4855.89164,N,00203.09901,E,1,06,1.32,44.3,M,46.1,M,,*66

$GPGSA,A,3,01,31,11,17,09,03,,,,,,,2.55,1.32,2.18*04

$GPGSV,3,1,11,01,43,129,30,03,78,043,26,04,56,174,13,06,21,305,18*76

$GPGSV,3,2,11,09,29,201,18,11,23,155,28,12,04,340,26,14,15,042,21*7A

$GPGSV,3,3,11,17,47,264,37,18,18,131,33,31,20,060,26*49

$GPGLL,4855.89164,N,00203.09901,E,060631.00,A,A*65

$GPRMC,060632.00,A,4855.89164,N,00203.09912,E,0.153,,070120,,,A*7E

$GPVTG,,T,,M,0.153,N,0.283,K,A*2D

$GPGGA,060632.00,4855.89164,N,00203.09912,E,1,06,1.32,44.3,M,46.1,M,,*67

$GPGSA,A,3,01,31,11,17,09,03,,,,,,,2.55,1.32,2.18*04

$GPGSV,3,1,11,01,43,129,30,03,78,043,26,04,56,174,13,06,21,305,19*77

$GPGSV,3,2,11,09,29,201,18,11,23,155,28,12,04,340,26,14,15,042,22*79

$GPGSV,3,3,11,17,47,264,37,18,18,131,33,31,20,060,26*49

$GPGLL,4855.89164,N,00203.09912,E,060632.00,A,A*64

$GPRMC,060633.00,A,4855.89167,N,00203.09903,E,0.288,,070120,,,A*79

$GPVTG,,T,,M,0.288,N,0.533,K,A*24

$GPGGA,060633.00,4855.89167,N,00203.09903,E,1,06,1.32,44.2,M,46.1,M,,*64

$GPGSA,A,3,01,31,11,17,09,03,,,,,,,2.55,1.32,2.18*04

$GPGSV,3,1,11,01,43,129,30,03,78,043,26,04,56,174,15,06,21,305,19*71

$GPGSV,3,2,11,09,29,201,18,11,23,155,28,12,04,340,26,14,15,042,22*79

$GPGSV,3,3,11,17,47,264,37,18,18,131,33,31,20,060,26*49

$GPGLL,4855.89167,N,00203.09903,E,060633.00,A,A*66

$GPRMC,060634.00,A,4855.89171,N,00203.09904,E,0.187,,070120,,,A*72

$GPVTG,,T,,M,0.187,N,0.347,K,A*2D

$GPGGA,060634.00,4855.89171,N,00203.09904,E,1,06,1.32,44.1,M,46.1,M,,*60

$GPGSA,A,3,01,31,11,17,09,03,,,,,,,2.55,1.32,2.18*04

$GPGSV,3,1,11,01,43,129,30,03,78,043,26,04,56,174,15,06,21,305,19*71

$GPGSV,3,2,11,09,29,201,18,11,23,155,28,12,04,340,26,14,15,042,22*79

$GPGSV,3,3,11,17,47,264,37,18,18,131,33,31,20,060,26*49

$GPGLL,4855.89171,N,00203.09904,E,060634.00,A,A*61

$GPRMC,060635.00,A,4855.89170,N,00203.09916,E,0.109,,070120,,,A*77

$GPVTG,,T,,M,0.109,N,0.201,K,A*28

$GPGGA,060635.00,4855.89170,N,00203.09916,E,1,06,1.32,44.1,M,46.1,M,,*63

$GPGSA,A,3,01,31,11,17,09,03,,,,,,,2.55,1.32,2.18*04

$GPGSV,3,1,11,01,43,129,30,03,78,043,26,04,56,174,15,06,21,305,19*71

$GPGSV,3,2,11,09,29,201,18,11,23,155,28,12,04,340,26,14,15,042,22*79

$GPGSV,3,3,11,17,47,264,37,18,18,131,33,31,20,060,26*49

$GPGLL,4855.89170,N,00203.09916,E,060635.00,A,A*62

$GPRMC,060636.00,A,4855.89178,N,00203.09925,E,0.196,,070120,,,A*7A

$GPVTG,,T,,M,0.196,N,0.363,K,A*2B

$GPGGA,060636.00,4855.89178,N,00203.09925,E,1,06,1.32,44.0,M,46.1,M,,*69

$GPGSA,A,3,01,31,11,17,09,03,,,,,,,2.55,1.32,2.18*04

$GPGSV,3,1,11,01,43,129,30,03,78,043,26,04,56,174,16,06,21,305,18*73

$GPGSV,3,2,11,09,29,201,19,11,23,155,29,12,04,340,26,14,15,042,23*78

$GPGSV,3,3,11,17,47,264,37,18,18,131,32,31,20,060,26*48

$GPGLL,4855.89178,N,00203.09925,E,060636.00,A,A*69

$GPRMC,060637.00,A,4855.89174,N,00203.09938,E,0.189,,070120,,,A*75

$GPVTG,,T,,M,0.189,N,0.350,K,A*25

$GPGGA,060637.00,4855.89174,N,00203.09938,E,1,06,1.32,43.9,M,46.1,M,,*66

$GPGSA,A,3,01,31,11,17,09,03,,,,,,,2.55,1.32,2.18*04

$GPGSV,3,1,11,01,43,129,30,03,78,043,26,04,56,174,16,06,21,305,19*72

$GPGSV,3,2,11,09,29,201,18,11,23,155,28,12,04,340,26,14,15,042,23*78

$GPGSV,3,3,11,17,47,264,37,18,18,131,33,31,20,060,25*4A

$GPGLL,4855.89174,N,00203.09938,E,060637.00,A,A*68

$GPRMC,060638.00,A,4855.89168,N,00203.09945,E,0.116,,070120,,,A*7B

$GPVTG,,T,,M,0.116,N,0.214,K,A*22

$GPGGA,060638.00,4855.89168,N,00203.09945,E,1,06,1.32,43.8,M,46.1,M,,*6F

$GPGSA,A,3,01,31,11,17,09,03,,,,,,,2.55,1.32,2.18*04

$GPGSV,3,1,11,01,43,129,29,03,78,043,26,04,56,174,17,06,21,305,19*7B

$GPGSV,3,2,11,09,29,201,18,11,23,155,29,12,04,340,26,14,15,042,22*78

$GPGSV,3,3,11,17,47,264,37,18,18,131,33,31,20,060,25*4A

$GPGLL,4855.89168,N,00203.09945,E,060638.00,A,A*60

$GPRMC,060639.00,A,4855.89174,N,00203.09944,E,0.209,,070120,,,A*7B

$GPVTG,,T,,M,0.209,N,0.387,K,A*24

$GPGGA,060639.00,4855.89174,N,00203.09944,E,1,06,1.32,43.7,M,46.1,M,,*6D

$GPGSA,A,3,01,31,11,17,09,03,,,,,,,2.55,1.32,2.18*04

$GPGSV,3,1,11,01,43,129,30,03,78,043,26,04,56,174,17,06,21,305,20*79

$GPGSV,3,2,11,09,29,201,18,11,23,155,28,12,04,340,26,14,15,042,22*79

$GPGSV,3,3,11,17,47,264,37,18,18,131,32,31,20,060,25*4B

$GPGLL,4855.89174,N,00203.09944,E,060639.00,A,A*6D

$GPRMC,060640.00,A,4855.89176,N,00203.09947,E,0.175,,070120,,,A*7C

$GPVTG,,T,,M,0.175,N,0.323,K,A*22

$GPGGA,060640.00,4855.89176,N,00203.09947,E,1,06,1.32,43.6,M,46.1,M,,*63

$GPGSA,A,3,01,31,11,17,09,03,,,,,,,2.55,1.32,2.18*04

$GPGSV,3,1,12,01,43,129,30,03,78,043,25,04,56,174,17,06,21,305,20*79

$GPGSV,3,2,12,09,29,201,18,11,23,155,29,12,04,340,26,14,15,042,22*7B

$GPGSV,3,3,12,17,47,264,37,18,18,131,33,23,,,33,31,20,060,25*48

$GPGLL,4855.89176,N,00203.09947,E,060640.00,A,A*62

$GPRMC,060641.00,A,4855.89177,N,00203.09952,E,0.058,,070120,,,A*76

$GPVTG,,T,,M,0.058,N,0.107,K,A*28

$GPGGA,060641.00,4855.89177,N,00203.09952,E,1,06,1.32,43.5,M,46.1,M,,*64

$GPGSA,A,3,01,31,11,17,09,03,,,,,,,2.55,1.32,2.18*04

$GPGSV,3,1,12,01,43,129,29,03,78,043,25,04,56,174,17,06,21,305,20*71

$GPGSV,3,2,12,09,29,201,19,11,23,155,29,12,04,340,26,14,15,042,22*7A

$GPGSV,3,3,12,17,47,264,37,18,18,131,33,23,,,33,31,20,060,25*48

$GPGLL,4855.89177,N,00203.09952,E,060641.00,A,A*66

$GPRMC,060642.00,A,4855.89181,N,00203.09961,E,0.118,,070120,,,A*79

$GPVTG,,T,,M,0.118,N,0.218,K,A*20

$GPGGA,060642.00,4855.89181,N,00203.09961,E,1,06,1.32,43.4,M,46.1,M,,*6F

$GPGSA,A,3,01,31,11,17,09,03,,,,,,,2.55,1.32,2.18*04

$GPGSV,3,1,12,01,43,129,29,03,78,043,24,04,56,174,16,06,21,305,21*70

$GPGSV,3,2,12,09,29,201,18,11,23,155,29,12,04,340,26,14,15,042,22*7B

$GPGSV,3,3,12,17,47,264,37,18,18,131,32,23,,,33,31,20,060,25*49

$GPGLL,4855.89181,N,00203.09961,E,060642.00,A,A*6C

$GPRMC,060643.00,A,4855.89184,N,00203.09964,E,0.092,,070120,,,A*7B

$GPVTG,,T,,M,0.092,N,0.171,K,A*2F

$GPGGA,060643.00,4855.89184,N,00203.09964,E,1,06,1.32,43.2,M,46.1,M,,*68

$GPGSA,A,3,01,31,11,17,09,03,,,,,,,2.55,1.32,2.18*04

$GPGSV,4,1,13,01,43,129,29,03,78,043,24,04,56,174,15,06,21,305,20*74

$GPGSV,4,2,13,09,29,201,19,11,23,155,29,12,04,340,26,14,15,042,22*7C

$GPGSV,4,3,13,17,47,264,37,18,18,131,33,19,41,292,,23,,,33*4B

$GPGSV,4,4,13,31,20,060,24*4B

$GPGLL,4855.89184,N,00203.09964,E,060643.00,A,A*6D

$GPRMC,060644.00,A,4855.89190,N,00203.09967,E,0.109,,070120,,,A*79

$GPVTG,,T,,M,0.109,N,0.201,K,A*28

$GPGGA,060644.00,4855.89190,N,00203.09967,E,1,06,1.32,43.1,M,46.1,M,,*6A

$GPGSA,A,3,01,31,11,17,09,03,,,,,,,2.55,1.32,2.18*04

$GPGSV,4,1,13,01,43,129,29,03,78,043,24,04,56,174,16,06,21,305,20*77

$GPGSV,4,2,13,09,29,201,19,11,23,155,29,12,04,340,26,14,15,042,22*7C

$GPGSV,4,3,13,17,47,264,37,18,18,131,33,19,41,292,26,23,,,33*4F

$GPGSV,4,4,13,31,20,060,25*4A

$GPGLL,4855.89190,N,00203.09967,E,060644.00,A,A*6C

$GPRMC,060645.00,A,4855.89194,N,00203.09968,E,0.063,,070120,,,A*7E

$GPVTG,,T,,M,0.063,N,0.117,K,A*21

$GPGGA,060645.00,4855.89194,N,00203.09968,E,1,06,1.32,42.9,M,46.1,M,,*69

$GPGSA,A,3,01,31,11,17,09,03,,,,,,,2.55,1.32,2.18*04

$GPGSV,4,1,13,01,43,129,29,03,78,043,24,04,56,174,16,06,21,305,20*77

$GPGSV,4,2,13,09,29,201,20,11,23,155,29,12,04,340,26,14,15,042,21*75

$GPGSV,4,3,13,17,47,264,37,18,18,131,32,19,41,292,26,23,,,33*4E

$GPGSV,4,4,13,31,20,060,24*4B

$GPGLL,4855.89194,N,00203.09968,E,060645.00,A,A*66

$GPRMC,060646.00,A,4855.89195,N,00203.09969,E,0.055,,070120,,,A*78

$GPVTG,,T,,M,0.055,N,0.101,K,A*23

$GPGGA,060646.00,4855.89195,N,00203.09969,E,1,06,1.32,42.7,M,46.1,M,,*64

$GPGSA,A,3,01,31,11,17,09,03,,,,,,,2.55,1.32,2.18*04

$GPGSV,4,1,13,01,43,129,28,03,78,043,23,04,56,174,16,06,21,305,20*71

$GPGSV,4,2,13,09,29,201,20,11,23,155,29,12,04,340,26,14,15,042,22*76

$GPGSV,4,3,13,17,47,264,37,18,18,131,32,19,41,292,26,23,,,33*4E

$GPGSV,4,4,13,31,20,060,24*4B

$GPGLL,4855.89195,N,00203.09969,E,060646.00,A,A*65

$GPRMC,060647.00,A,4855.89199,N,00203.09973,E,0.009,,070120,,,A*77

$GPVTG,,T,,M,0.009,N,0.017,K,A*2C

$GPGGA,060647.00,4855.89199,N,00203.09973,E,1,06,1.32,42.6,M,46.1,M,,*63

$GPGSA,A,3,01,31,11,17,09,03,,,,,,,2.55,1.32,2.18*04

$GPGSV,4,1,13,01,43,129,28,03,78,043,23,04,56,174,17,06,21,305,21*71

$GPGSV,4,2,13,09,29,201,19,11,23,155,29,12,04,340,26,14,15,042,22*7C

$GPGSV,4,3,13,17,47,264,37,18,18,131,32,19,41,292,26,23,,,33*4E

$GPGSV,4,4,13,31,20,060,24*4B

$GPGLL,4855.89199,N,00203.09973,E,060647.00,A,A*63

$GPRMC,060648.00,A,4855.89200,N,00203.09986,E,0.194,,070120,,,A*74

$GPVTG,,T,,M,0.194,N,0.360,K,A*2A

$GPGGA,060648.00,4855.89200,N,00203.09986,E,1,06,1.32,42.4,M,46.1,M,,*67

$GPGSA,A,3,01,31,11,17,09,03,,,,,,,2.55,1.32,2.18*04

$GPGSV,4,1,13,01,43,129,28,03,78,043,22,04,56,174,18,06,21,305,20*7E

$GPGSV,4,2,13,09,29,201,19,11,23,155,29,12,04,340,26,14,15,042,22*7C

$GPGSV,4,3,13,17,47,264,37,18,18,131,33,19,41,292,27,23,,,33*4E

$GPGSV,4,4,13,31,20,060,24*4B

$GPGLL,4855.89200,N,00203.09986,E,060648.00,A,A*65

$GPRMC,060649.00,A,4855.89195,N,00203.09990,E,0.241,,070120,,,A*76

$GPVTG,,T,,M,0.241,N,0.447,K,A*23

$GPGGA,060649.00,4855.89195,N,00203.09990,E,1,06,1.32,42.2,M,46.1,M,,*68

$GPGSA,A,3,01,31,11,17,09,03,,,,,,,2.55,1.32,2.18*04

$GPGSV,4,1,13,01,43,129,28,03,78,043,22,04,56,174,18,06,21,305,21*7F

$GPGSV,4,2,13,09,29,201,19,11,23,155,29,12,04,340,26,14,15,042,21*7F

$GPGSV,4,3,13,17,47,264,37,18,18,131,32,19,41,292,27,23,,,33*4F

$GPGSV,4,4,13,31,20,060,23*4C

$GPGLL,4855.89195,N,00203.09990,E,060649.00,A,A*6C

$GPRMC,060650.00,A,4855.89208,N,00203.10000,E,0.104,,070120,,,A*73

$GPVTG,,T,,M,0.104,N,0.193,K,A*2D

$GPGGA,060650.00,4855.89208,N,00203.10000,E,1,06,1.32,42.1,M,46.1,M,,*6C

$GPGSA,A,3,01,31,11,17,09,03,,,,,,,2.55,1.32,2.18*04

$GPGSV,4,1,13,01,43,129,28,03,78,043,22,04,56,174,19,06,21,305,21*7E

$GPGSV,4,2,13,09,29,201,19,11,23,155,29,12,04,340,26,14,15,042,21*7F

$GPGSV,4,3,13,17,47,264,37,18,18,131,32,19,41,292,27,23,,,33*4F

$GPGSV,4,4,13,31,20,060,23*4C

$GPGLL,4855.89208,N,00203.10000,E,060650.00,A,A*6B

$GPRMC,060651.00,A,4855.89211,N,00203.09991,E,0.243,,070120,,,A*73

$GPVTG,,T,,M,0.243,N,0.449,K,A*2F

$GPGGA,060651.00,4855.89211,N,00203.09991,E,1,06,1.32,41.8,M,46.1,M,,*66

$GPGSA,A,3,01,31,11,17,09,03,,,,,,,2.55,1.32,2.18*04

$GPGSV,4,1,13,01,43,129,28,03,78,043,22,04,56,174,19,06,21,305,21*7E

$GPGSV,4,2,13,09,29,201,19,11,23,155,29,12,04,340,26,14,15,042,21*7F

$GPGSV,4,3,13,17,47,264,37,18,18,131,33,19,41,292,27,23,,,33*4E

$GPGSV,4,4,13,31,20,060,23*4C

$GPGLL,4855.89211,N,00203.09991,E,060651.00,A,A*6B

$GPRMC,060652.00,A,4855.89245,N,00203.10018,E,0.544,,070120,,,A*71

$GPVTG,,T,,M,0.544,N,1.008,K,A*2F

$GPGGA,060652.00,4855.89245,N,00203.10018,E,1,06,1.32,41.5,M,46.1,M,,*69

$GPGSA,A,3,01,31,11,17,09,03,,,,,,,2.55,1.32,2.18*04

$GPGSV,4,1,13,01,43,129,28,03,78,043,22,04,56,174,19,06,21,305,20*7F

$GPGSV,4,2,13,09,29,201,19,11,23,155,29,12,04,340,26,14,15,042,21*7F

$GPGSV,4,3,13,17,47,264,37,18,18,131,32,19,41,292,27,23,,,33*4F

$GPGSV,4,4,13,31,20,060,22*4D

$GPGLL,4855.89245,N,00203.10018,E,060652.00,A,A*69

$GPRMC,060653.00,A,4855.89251,N,00203.10037,E,0.499,,070120,,,A*79

$GPVTG,,T,,M,0.499,N,0.925,K,A*29

$GPGGA,060653.00,4855.89251,N,00203.10037,E,1,06,1.32,41.3,M,46.1,M,,*66

$GPGSA,A,3,01,31,11,17,09,03,,,,,,,2.55,1.32,2.18*04

$GPGSV,4,1,13,01,43,129,28,03,78,043,22,04,56,174,18,06,21,305,20*7E

$GPGSV,4,2,13,09,29,201,19,11,23,155,29,12,04,340,26,14,15,042,21*7F

$GPGSV,4,3,13,17,47,264,37,18,18,131,32,19,41,292,27,23,,,33*4F

$GPGSV,4,4,13,31,20,060,22*4D

$GPGLL,4855.89251,N,00203.10037,E,060653.00,A,A*60

$GPRMC,060654.00,A,4855.89247,N,00203.10035,E,0.158,,070120,,,A*73

$GPVTG,,T,,M,0.158,N,0.293,K,A*27

$GPGGA,060654.00,4855.89247,N,00203.10035,E,1,06,1.32,41.1,M,46.1,M,,*66

$GPGSA,A,3,01,31,11,17,09,03,,,,,,,2.55,1.32,2.18*04

$GPGSV,4,1,13,01,43,129,27,03,78,043,22,04,56,174,19,06,21,305,21*71

$GPGSV,4,2,13,09,29,201,18,11,23,155,29,12,04,340,26,14,15,042,21*7E

$GPGSV,4,3,13,17,47,264,37,18,18,131,32,19,41,292,27,23,,,33*4F

$GPGSV,4,4,13,31,20,060,23*4C

$GPGLL,4855.89247,N,00203.10035,E,060654.00,A,A*62

$GPRMC,060655.00,A,4855.89250,N,00203.10034,E,0.131,,070120,,,A*7A

$GPVTG,,T,,M,0.131,N,0.243,K,A*25

$GPGGA,060655.00,4855.89250,N,00203.10034,E,1,06,1.32,40.9,M,46.1,M,,*69

$GPGSA,A,3,01,31,11,17,09,03,,,,,,,2.55,1.32,2.18*04

$GPGSV,4,1,13,01,43,129,27,03,78,043,22,04,56,174,19,06,21,305,20*70

$GPGSV,4,2,13,09,29,201,19,11,23,155,29,12,04,340,26,14,15,042,21*7F

$GPGSV,4,3,13,17,47,264,37,18,18,131,32,19,41,292,26,23,,,33*4E

$GPGSV,4,4,13,31,20,060,23*4C

$GPGLL,4855.89250,N,00203.10034,E,060655.00,A,A*64

$GPRMC,060656.00,A,4855.89241,N,00203.10043,E,0.212,,070120,,,A*7B

$GPVTG,,T,,M,0.212,N,0.392,K,A*2A

$GPGGA,060656.00,4855.89241,N,00203.10043,E,1,06,1.32,40.6,M,46.1,M,,*65

$GPGSA,A,3,01,31,11,17,09,03,,,,,,,2.55,1.32,2.18*04

$GPGSV,4,1,13,01,43,129,27,03,78,043,22,04,56,174,18,06,21,305,21*70

$GPGSV,4,2,13,09,29,201,19,11,23,155,29,12,04,340,26,14,15,042,21*7F

$GPGSV,4,3,13,17,47,264,37,18,18,131,32,19,41,292,26,23,,,34*49

$GPGSV,4,4,13,31,20,060,23*4C

$GPGLL,4855.89241,N,00203.10043,E,060656.00,A,A*67

$GPRMC,060657.00,A,4855.89240,N,00203.10039,E,0.082,,070120,,,A*7D

$GPVTG,,T,,M,0.082,N,0.152,K,A*2F

$GPGGA,060657.00,4855.89240,N,00203.10039,E,1,06,1.32,40.3,M,46.1,M,,*6D

$GPGSA,A,3,01,31,11,17,09,03,,,,,,,2.55,1.32,2.18*04

$GPGSV,4,1,13,01,43,129,27,03,78,043,22,04,56,174,18,06,21,305,21*70

$GPGSV,4,2,13,09,29,201,19,11,23,155,29,12,04,340,26,14,15,042,22*7C

$GPGSV,4,3,13,17,47,264,37,18,18,131,32,19,41,292,27,23,,,34*48

$GPGSV,4,4,13,31,20,060,24*4B

$GPGLL,4855.89240,N,00203.10039,E,060657.00,A,A*6A

$GPRMC,060658.00,A,4855.89238,N,00203.10032,E,0.121,,070120,,,A*7E

$GPVTG,,T,,M,0.121,N,0.224,K,A*25

$GPGGA,060658.00,4855.89238,N,00203.10032,E,1,06,1.32,40.0,M,46.1,M,,*65

$GPGSA,A,3,01,31,11,17,09,03,,,,,,,2.55,1.32,2.18*04

$GPGSV,4,1,13,01,43,129,27,03,78,043,22,04,56,174,18,06,21,305,21*70

$GPGSV,4,2,13,09,29,201,19,11,23,155,29,12,04,340,26,14,15,042,21*7F

$GPGSV,4,3,13,17,47,264,37,18,18,131,32,19,41,292,27,23,,,34*48

$GPGSV,4,4,13,31,20,060,24*4B

$GPGLL,4855.89238,N,00203.10032,E,060658.00,A,A*61

$GPRMC,060659.00,A,4855.89245,N,00203.10040,E,0.210,,070120,,,A*71

$GPVTG,,T,,M,0.210,N,0.389,K,A*22

$GPGGA,060659.00,4855.89245,N,00203.10040,E,1,06,1.32,39.7,M,46.1,M,,*62

$GPGSA,A,3,01,31,11,17,09,03,,,,,,,2.55,1.32,2.18*04

$GPGSV,4,1,13,01,43,129,27,03,78,043,22,04,56,174,19,06,21,305,21*71

$GPGSV,4,2,13,09,29,201,19,11,23,155,29,12,04,340,26,14,15,042,22*7C

$GPGSV,4,3,13,17,47,264,37,18,18,131,32,19,41,292,27,23,,,34*48

$GPGSV,4,4,13,31,20,060,24*4B

$GPGLL,4855.89245,N,00203.10040,E,060659.00,A,A*6F

$GPRMC,060700.00,A,4855.89247,N,00203.10049,E,0.277,,070120,,,A*76

$GPVTG,,T,,M,0.277,N,0.513,K,A*26

$GPGGA,060700.00,4855.89247,N,00203.10049,E,1,06,1.32,39.5,M,46.1,M,,*66

$GPGSA,A,3,01,31,11,17,09,03,,,,,,,2.55,1.32,2.18*04

$GPGSV,4,1,13,01,43,129,27,03,78,043,21,04,56,174,19,06,21,305,21*72

$GPGSV,4,2,13,09,29,201,18,11,23,155,29,12,04,340,26,14,15,042,21*7E

$GPGSV,4,3,13,17,47,264,37,18,18,131,32,19,41,292,27,23,,,34*48

$GPGSV,4,4,13,31,20,060,24*4B

$GPGLL,4855.89247,N,00203.10049,E,060700.00,A,A*69

$GPRMC,060701.00,A,4855.89261,N,00203.10043,E,0.246,,070120,,,A*7B

$GPVTG,,T,,M,0.246,N,0.456,K,A*24

$GPGGA,060701.00,4855.89261,N,00203.10043,E,1,07,1.28,38.8,M,46.1,M,,*6F

$GPGSA,A,3,01,23,31,11,17,09,03,,,,,,2.36,1.28,1.99*01

$GPGSV,4,1,13,01,43,129,27,03,78,043,21,04,56,174,19,06,21,305,22*71

$GPGSV,4,2,13,09,29,201,17,11,23,155,29,12,04,340,26,14,15,042,21*71

$GPGSV,4,3,13,17,47,264,37,18,18,131,32,19,41,292,27,23,55,183,34*72

$GPGSV,4,4,13,31,20,060,24*4B

$GPGLL,4855.89261,N,00203.10043,E,060701.00,A,A*66

$GPRMC,060702.00,A,4855.89273,N,00203.10049,E,0.292,,070120,,,A*78

$GPVTG,,T,,M,0.292,N,0.541,K,A*2A

$GPGGA,060702.00,4855.89273,N,00203.10049,E,1,07,1.28,38.5,M,46.1,M,,*68

$GPGSA,A,3,01,23,31,11,17,09,03,,,,,,2.36,1.28,1.99*01

$GPGSV,4,1,13,01,43,129,26,03,78,043,19,04,56,174,19,06,21,305,22*7B

$GPGSV,4,2,13,09,29,201,18,11,23,155,29,12,04,340,26,14,15,042,21*7E

$GPGSV,4,3,13,17,47,264,37,18,18,131,32,19,41,292,27,23,55,183,34*72

$GPGSV,4,4,13,31,20,060,24*4B

$GPGLL,4855.89273,N,00203.10049,E,060702.00,A,A*6C

$GPRMC,060703.00,A,4855.89268,N,00203.10033,E,0.160,,070120,,,A*70

$GPVTG,,T,,M,0.160,N,0.297,K,A*28

$GPGGA,060703.00,4855.89268,N,00203.10033,E,1,07,1.28,38.2,M,46.1,M,,*69

$GPGSA,A,3,01,23,31,11,17,09,03,,,,,,2.36,1.28,1.99*01

$GPGSV,4,1,13,01,43,129,27,03,78,043,19,04,56,174,19,06,21,305,23*7B

$GPGSV,4,2,13,09,29,201,18,11,23,155,29,12,04,340,26,14,15,042,21*7E

$GPGSV,4,3,13,17,47,264,37,18,18,131,32,19,41,292,27,23,55,183,34*72

$GPGSV,4,4,13,31,20,060,23*4C

$GPGLL,4855.89268,N,00203.10033,E,060703.00,A,A*6A

$GPRMC,060704.00,A,4855.89267,N,00203.10025,E,0.193,,070120,,,A*73

$GPVTG,,T,,M,0.193,N,0.358,K,A*26

$GPGGA,060704.00,4855.89267,N,00203.10025,E,1,07,1.28,37.9,M,46.1,M,,*62

$GPGSA,A,3,01,23,31,11,17,09,03,,,,,,2.36,1.28,1.99*01

$GPGSV,4,1,13,01,43,129,27,03,78,043,18,04,56,174,19,06,21,305,22*7B

$GPGSV,4,2,13,09,29,201,18,11,23,155,29,12,04,340,26,14,15,042,21*7E

$GPGSV,4,3,13,17,47,264,37,18,18,131,32,19,41,292,27,23,55,183,34*72

$GPGSV,4,4,13,31,20,060,23*4C

$GPGLL,4855.89267,N,00203.10025,E,060704.00,A,A*65

$GPRMC,060705.00,A,4855.89270,N,00203.10024,E,0.102,,070120,,,A*7D

$GPVTG,,T,,M,0.102,N,0.188,K,A*21

$GPGGA,060705.00,4855.89270,N,00203.10024,E,1,07,1.28,37.5,M,46.1,M,,*68

$GPGSA,A,3,01,23,31,11,17,09,03,,,,,,2.36,1.28,1.99*01

$GPGSV,4,1,13,01,43,129,27,03,78,043,17,04,56,174,20,06,21,305,22*7E

$GPGSV,4,2,13,09,29,201,18,11,23,155,29,12,04,340,26,14,15,042,21*7E

$GPGSV,4,3,13,17,47,264,37,18,18,131,32,19,41,292,27,23,55,183,34*72

$GPGSV,4,4,13,31,20,060,23*4C

$GPGLL,4855.89270,N,00203.10024,E,060705.00,A,A*63

$GPRMC,060706.00,A,4855.89262,N,00203.10013,E,0.277,,070120,,,A*78

$GPVTG,,T,,M,0.277,N,0.513,K,A*26

$GPGGA,060706.00,4855.89262,N,00203.10013,E,1,07,1.28,36.9,M,46.1,M,,*61

$GPGSA,A,3,01,23,31,11,17,09,03,,,,,,2.36,1.28,1.99*01

$GPGSV,4,1,13,01,43,129,27,03,78,043,16,04,56,174,19,06,21,305,23*74

$GPGSV,4,2,13,09,29,201,18,11,23,155,29,12,04,340,27,14,15,042,20*7E

$GPGSV,4,3,13,17,47,264,37,18,18,131,32,19,41,292,27,23,55,183,34*72

$GPGSV,4,4,13,31,20,060,24*4B

$GPGLL,4855.89262,N,00203.10013,E,060706.00,A,A*67

$GPRMC,060707.00,A,4855.89265,N,00203.10020,E,0.207,,070120,,,A*79

$GPVTG,,T,,M,0.207,N,0.383,K,A*2E

$GPGGA,060707.00,4855.89265,N,00203.10020,E,1,07,1.28,36.5,M,46.1,M,,*6B

$GPGSA,A,3,01,23,31,11,17,09,03,,,,,,2.36,1.28,1.99*01

$GPGSV,4,1,13,01,43,129,27,03,78,043,14,04,56,174,19,06,21,305,23*76

$GPGSV,4,2,13,09,29,201,18,11,23,155,29,12,04,340,27,14,15,042,20*7E

$GPGSV,4,3,13,17,47,264,37,18,18,131,31,19,41,292,27,23,55,183,34*71

$GPGSV,4,4,13,31,20,060,24*4B

$GPGLL,4855.89265,N,00203.10020,E,060707.00,A,A*61

$GPRMC,060708.00,A,4855.89276,N,00203.10037,E,0.124,,070120,,,A*70

$GPVTG,,T,,M,0.124,N,0.229,K,A*2D

$GPGGA,060708.00,4855.89276,N,00203.10037,E,1,07,1.28,36.3,M,46.1,M,,*66

$GPGSA,A,3,01,23,31,11,17,09,03,,,,,,2.36,1.28,1.99*01

$GPGSV,4,1,13,01,43,129,27,03,78,043,13,04,56,174,18,06,21,305,23*70

$GPGSV,4,2,13,09,29,201,17,11,23,155,30,12,04,340,27,14,15,042,20*79

$GPGSV,4,3,13,17,47,264,37,18,18,131,31,19,41,292,27,23,55,183,34*71

$GPGSV,4,4,13,31,20,060,24*4B

$GPGLL,4855.89276,N,00203.10037,E,060708.00,A,A*6A

$GPRMC,060709.00,A,4855.89282,N,00203.10041,E,0.081,,070120,,,A*75

$GPVTG,,T,,M,0.081,N,0.149,K,A*26

$GPGGA,060709.00,4855.89282,N,00203.10041,E,1,07,1.28,36.3,M,46.1,M,,*6D

$GPGSA,A,3,01,23,31,11,17,09,03,,,,,,2.36,1.28,1.99*01

$GPGSV,4,1,13,01,43,129,26,03,78,043,12,04,56,174,19,06,21,305,23*71

$GPGSV,4,2,13,09,29,201,18,11,23,155,30,12,04,340,27,14,15,042,20*76

$GPGSV,4,3,13,17,47,264,37,18,18,131,31,19,41,292,27,23,55,183,34*71

$GPGSV,4,4,13,31,20,060,24*4B

$GPGLL,4855.89282,N,00203.10041,E,060709.00,A,A*61

$GPRMC,060710.00,A,4855.89281,N,00203.10038,E,0.180,,070120,,,A*70

$GPVTG,,T,,M,0.180,N,0.334,K,A*2E

$GPGGA,060710.00,4855.89281,N,00203.10038,E,1,07,1.28,36.0,M,46.1,M,,*6B

$GPGSA,A,3,01,23,31,11,17,09,03,,,,,,2.36,1.28,1.99*01

$GPGSV,4,1,13,01,43,129,27,03,78,043,12,04,56,174,18,06,21,305,23*71

$GPGSV,4,2,13,09,29,201,17,11,23,155,30,12,04,340,27,14,15,042,20*79

$GPGSV,4,3,13,17,47,264,37,18,18,131,31,19,41,292,27,23,55,183,34*71

$GPGSV,4,4,13,31,20,060,24*4B

$GPGLL,4855.89281,N,00203.10038,E,060710.00,A,A*64

$GPRMC,060711.00,A,4855.89287,N,00203.10043,E,0.130,,070120,,,A*70

$GPVTG,,T,,M,0.130,N,0.240,K,A*27

$GPGGA,060711.00,4855.89287,N,00203.10043,E,1,06,1.34,35.8,M,46.1,M,,*67

$GPGSA,A,3,01,23,31,11,17,09,,,,,,,3.02,1.34,2.71*0C

$GPGSV,4,1,13,01,43,129,26,03,78,043,09,04,56,174,19,06,21,305,24*7C

$GPGSV,4,2,13,09,29,201,19,11,23,155,30,12,04,340,27,14,15,042,20*77

$GPGSV,4,3,13,17,47,264,37,18,18,131,31,19,41,292,27,23,55,183,34*71

$GPGSV,4,4,13,31,20,060,24*4B

$GPGLL,4855.89287,N,00203.10043,E,060711.00,A,A*6F

$GPRMC,060712.00,A,4855.89284,N,00203.10041,E,0.218,,070120,,,A*7B

$GPVTG,,T,,M,0.218,N,0.404,K,A*28

$GPGGA,060712.00,4855.89284,N,00203.10041,E,1,06,1.34,35.6,M,46.1,M,,*6B

$GPGSA,A,3,01,23,31,11,17,09,,,,,,,3.02,1.34,2.71*0C

$GPGSV,4,1,13,01,43,129,26,03,78,043,08,04,56,174,18,06,21,305,24*7C

$GPGSV,4,2,13,09,29,201,19,11,23,155,30,12,04,340,27,14,15,042,21*76

$GPGSV,4,3,13,17,47,264,37,18,18,131,31,19,41,292,27,23,55,183,34*71

$GPGSV,4,4,13,31,20,060,24*4B

$GPGLL,4855.89284,N,00203.10041,E,060712.00,A,A*6D

$GPRMC,060713.00,A,4855.89290,N,00203.10051,E,0.117,,070120,,,A*72

$GPVTG,,T,,M,0.117,N,0.217,K,A*20

$GPGGA,060713.00,4855.89290,N,00203.10051,E,1,06,1.34,35.2,M,46.1,M,,*6A

$GPGSA,A,3,01,23,31,11,17,09,,,,,,,3.02,1.34,2.71*0C

$GPGSV,4,1,13,01,42,130,26,03,78,043,08,04,56,174,18,06,21,305,24*75

$GPGSV,4,2,13,09,29,201,19,11,23,155,30,12,04,340,27,14,15,042,21*76

$GPGSV,4,3,13,17,47,264,36,18,18,131,31,19,41,292,27,23,55,183,34*70

$GPGSV,4,4,13,31,20,060,24*4B

$GPGLL,4855.89290,N,00203.10051,E,060713.00,A,A*68

$GPRMC,060714.00,A,4855.89293,N,00203.10051,E,0.025,,070120,,,A*76

$GPVTG,,T,,M,0.025,N,0.046,K,A*26

$GPGGA,060714.00,4855.89293,N,00203.10051,E,1,07,1.28,35.0,M,46.1,M,,*60

$GPGSA,A,3,01,23,31,11,17,09,03,,,,,,2.36,1.28,1.99*01

$GPGSV,4,1,13,01,42,130,26,03,78,043,07,04,56,174,18,06,21,305,23*7D

$GPGSV,4,2,13,09,29,201,19,11,23,155,30,12,04,340,27,14,15,042,21*76

$GPGSV,4,3,13,17,47,264,36,18,18,131,31,19,41,292,27,23,55,183,34*70

$GPGSV,4,4,13,31,20,060,25*4A

$GPGLL,4855.89293,N,00203.10051,E,060714.00,A,A*6C

$GPRMC,060715.00,A,4855.89302,N,00203.10060,E,0.150,,070120,,,A*7F

$GPVTG,,T,,M,0.150,N,0.277,K,A*25

$GPGGA,060715.00,4855.89302,N,00203.10060,E,1,07,1.28,34.9,M,46.1,M,,*62

$GPGSA,A,3,01,23,31,11,17,09,03,,,,,,2.36,1.28,1.99*01

$GPGSV,4,1,13,01,42,130,25,03,77,044,07,04,56,174,19,06,21,305,23*77

$GPGSV,4,2,13,09,29,201,19,11,23,155,30,12,04,340,27,14,15,042,21*76

$GPGSV,4,3,13,17,47,264,36,18,18,131,31,19,41,292,27,23,55,183,34*70

$GPGSV,4,4,13,31,20,060,24*4B

$GPGLL,4855.89302,N,00203.10060,E,060715.00,A,A*66

$GPRMC,060716.00,A,4855.89303,N,00203.10058,E,0.093,,070120,,,A*78

$GPVTG,,T,,M,0.093,N,0.173,K,A*2C

$GPGGA,060716.00,4855.89303,N,00203.10058,E,1,07,1.34,34.8,M,46.1,M,,*67

$GPGSA,A,3,01,23,31,11,17,09,03,,,,,,3.02,1.34,2.71*0F

$GPGSV,4,1,13,01,42,130,26,03,77,044,07,04,57,174,19,06,21,305,23*75

$GPGSV,4,2,13,09,29,201,20,11,23,155,30,12,04,340,27,14,15,042,21*7C

$GPGSV,4,3,13,17,47,264,36,18,18,131,31,19,41,292,27,23,55,183,34*70

$GPGSV,4,4,13,31,20,060,24*4B

$GPGLL,4855.89303,N,00203.10058,E,060716.00,A,A*6F

$GPRMC,060717.00,A,4855.89316,N,00203.10072,E,0.225,,070120,,,A*7A

$GPVTG,,T,,M,0.225,N,0.417,K,A*24

$GPGGA,060717.00,4855.89316,N,00203.10072,E,1,07,1.34,34.7,M,46.1,M,,*65

$GPGSA,A,3,01,23,31,11,17,09,03,,,,,,3.02,1.34,2.71*0F

$GPGSV,4,1,13,01,42,130,26,03,77,044,07,04,57,174,19,06,21,305,23*75

$GPGSV,4,2,13,09,29,201,19,11,23,155,30,12,04,340,26,14,15,042,21*77

$GPGSV,4,3,13,17,47,264,36,18,18,131,30,19,41,292,27,23,55,183,34*71

$GPGSV,4,4,13,31,20,060,24*4B

$GPGLL,4855.89316,N,00203.10072,E,060717.00,A,A*62

$GPRMC,060718.00,A,4855.89316,N,00203.10074,E,0.079,,070120,,,A*78

$GPVTG,,T,,M,0.079,N,0.146,K,A*2E

$GPGGA,060718.00,4855.89316,N,00203.10074,E,1,07,1.34,34.6,M,46.1,M,,*6D

$GPGSA,A,3,01,23,31,11,17,09,03,,,,,,3.02,1.34,2.71*0F

$GPGSV,4,1,13,01,42,130,26,03,77,044,07,04,57,174,20,06,21,305,24*78

$GPGSV,4,2,13,09,29,201,19,11,23,155,30,12,04,340,27,14,15,042,21*76

$GPGSV,4,3,13,17,47,264,36,18,18,131,30,19,41,292,28,23,55,183,34*7E

$GPGSV,4,4,13,31,20,060,24*4B

$GPGLL,4855.89316,N,00203.10074,E,060718.00,A,A*6B

$GPRMC,060719.00,A,4855.89316,N,00203.10068,E,0.128,,070120,,,A*71

$GPVTG,,T,,M,0.128,N,0.237,K,A*2E

$GPGGA,060719.00,4855.89316,N,00203.10068,E,1,07,1.34,34.6,M,46.1,M,,*61

$GPGSA,A,3,01,23,31,11,17,09,03,,,,,,3.02,1.34,2.71*0F

$GPGSV,4,1,13,01,42,130,26,03,77,044,07,04,57,174,20,06,21,305,24*78

$GPGSV,4,2,13,09,29,201,20,11,23,155,30,12,04,340,27,14,15,042,21*7C

$GPGSV,4,3,13,17,47,264,36,18,18,131,30,19,41,292,27,23,55,183,34*71

$GPGSV,4,4,13,31,20,060,24*4B

$GPGLL,4855.89316,N,00203.10068,E,060719.00,A,A*67

$GPRMC,060720.00,A,4855.89312,N,00203.10066,E,0.164,,070120,,,A*79

$GPVTG,,T,,M,0.164,N,0.304,K,A*27

$GPGGA,060720.00,4855.89312,N,00203.10066,E,1,06,1.34,34.4,M,46.1,M,,*62

$GPGSA,A,3,01,23,31,11,17,09,,,,,,,3.02,1.34,2.71*0C

$GPGSV,4,1,13,01,42,130,26,03,77,044,05,04,57,174,20,06,21,305,25*7B

$GPGSV,4,2,13,09,29,201,20,11,23,155,30,12,04,340,27,14,15,042,22*7F

$GPGSV,4,3,13,17,47,264,36,18,18,131,30,19,41,292,27,23,55,183,34*71

$GPGSV,4,4,13,31,20,060,24*4B

$GPGLL,4855.89312,N,00203.10066,E,060720.00,A,A*67

$GPRMC,060721.00,A,4855.89313,N,00203.10065,E,0.069,,070120,,,A*76

$GPVTG,,T,,M,0.069,N,0.128,K,A*27

$GPGGA,060721.00,4855.89313,N,00203.10065,E,1,06,1.34,34.2,M,46.1,M,,*67

$GPGSA,A,3,01,23,31,11,17,09,,,,,,,3.02,1.34,2.71*0C

$GPGSV,4,1,13,01,42,130,26,03,77,044,05,04,57,174,19,06,21,305,24*70

$GPGSV,4,2,13,09,30,201,20,11,23,155,30,12,04,340,27,14,15,042,21*74

$GPGSV,4,3,13,17,47,264,36,18,18,131,30,19,41,292,28,23,55,183,34*7E

$GPGSV,4,4,13,31,20,060,25*4A

$GPGLL,4855.89313,N,00203.10065,E,060721.00,A,A*64

$GPRMC,060722.00,A,4855.89311,N,00203.10063,E,0.073,,070120,,,A*7A

$GPVTG,,T,,M,0.073,N,0.135,K,A*20

$GPGGA,060722.00,4855.89311,N,00203.10063,E,1,06,1.34,34.2,M,46.1,M,,*60

$GPGSA,A,3,01,23,31,11,17,09,,,,,,,3.02,1.34,2.71*0C

$GPGSV,4,1,13,01,42,130,26,03,77,044,05,04,57,174,19,06,21,305,25*71

$GPGSV,4,2,13,09,30,201,21,11,23,155,30,12,04,340,27,14,15,042,21*75

$GPGSV,4,3,13,17,47,264,36,18,18,131,30,19,41,292,27,23,55,183,34*71

$GPGSV,4,4,13,31,20,060,24*4B

$GPGLL,4855.89311,N,00203.10063,E,060722.00,A,A*63

$GPRMC,060723.00,A,4855.89308,N,00203.10064,E,0.098,,070120,,,A*71

$GPVTG,,T,,M,0.098,N,0.182,K,A*29

$GPGGA,060723.00,4855.89308,N,00203.10064,E,1,06,1.34,33.9,M,46.1,M,,*62

$GPGSA,A,3,01,23,31,11,17,09,,,,,,,3.02,1.34,2.71*0C

$GPGSV,4,1,13,01,42,130,26,03,77,044,05,04,57,174,19,06,21,305,25*71

$GPGSV,4,2,13,09,30,201,21,11,22,155,30,12,04,340,27,14,15,042,22*77

$GPGSV,4,3,13,17,47,264,36,18,18,131,30,19,41,292,28,23,55,183,34*7E

$GPGSV,4,4,13,31,20,060,24*4B

$GPGLL,4855.89308,N,00203.10064,E,060723.00,A,A*6D

$GPRMC,060724.00,A,4855.89303,N,00203.10061,E,0.100,,070120,,,A*78

$GPVTG,,T,,M,0.100,N,0.185,K,A*2E

$GPGGA,060724.00,4855.89303,N,00203.10061,E,1,06,1.34,33.6,M,46.1,M,,*64

$GPGSA,A,3,01,23,31,11,17,09,,,,,,,3.02,1.34,2.71*0C

$GPGSV,4,1,13,01,42,130,26,03,77,044,05,04,57,174,20,06,21,305,25*7B

$GPGSV,4,2,13,09,30,201,21,11,22,155,30,12,04,340,27,14,15,042,22*77

$GPGSV,4,3,13,17,47,264,36,18,18,131,30,19,41,292,27,23,55,183,34*71

$GPGSV,4,4,13,31,20,060,25*4A

$GPGLL,4855.89303,N,00203.10061,E,060724.00,A,A*64

$GPRMC,060725.00,A,4855.89305,N,00203.10057,E,0.034,,070120,,,A*7C

$GPVTG,,T,,M,0.034,N,0.062,K,A*20

$GPGGA,060725.00,4855.89305,N,00203.10057,E,1,07,1.13,33.5,M,46.1,M,,*61

$GPGSA,A,3,01,23,31,11,17,09,19,,,,,,2.92,1.13,2.69*00

$GPGSV,4,1,13,01,42,130,26,03,77,044,05,04,57,174,20,06,21,305,25*7B

$GPGSV,4,2,13,09,30,201,21,11,22,155,30,12,04,340,27,14,15,042,22*77

$GPGSV,4,3,13,17,47,264,36,18,18,131,30,19,41,292,28,23,55,183,34*7E

$GPGSV,4,4,13,31,20,060,24*4B

$GPGLL,4855.89305,N,00203.10057,E,060725.00,A,A*66

$GPRMC,060726.00,A,4855.89299,N,00203.10045,E,0.143,,070120,,,A*79

$GPVTG,,T,,M,0.143,N,0.265,K,A*24

$GPGGA,060726.00,4855.89299,N,00203.10045,E,1,08,1.13,33.4,M,46.1,M,,*6B

$GPGSA,A,3,01,23,31,11,17,09,19,03,,,,,2.92,1.13,2.69*03

$GPGSV,4,1,13,01,42,130,26,03,77,044,07,04,57,174,20,06,21,305,25*79

$GPGSV,4,2,13,09,30,201,21,11,22,155,30,12,04,340,27,14,14,042,22*76

$GPGSV,4,3,13,17,47,264,36,18,18,131,29,19,41,292,28,23,55,183,34*76

$GPGSV,4,4,13,31,20,060,24*4B

$GPGLL,4855.89299,N,00203.10045,E,060726.00,A,A*62

$GPRMC,060727.00,A,4855.89286,N,00203.10023,E,0.481,,070120,,,A*7D

$GPVTG,,T,,M,0.481,N,0.891,K,A*2E

$GPGGA,060727.00,4855.89286,N,00203.10023,E,1,08,1.13,33.3,M,46.1,M,,*63

$GPGSA,A,3,01,23,31,11,17,09,19,03,,,,,2.92,1.13,2.69*03

$GPGSV,4,1,13,01,42,130,27,03,77,044,07,04,57,174,20,06,21,305,25*78

$GPGSV,4,2,13,09,30,201,21,11,22,155,30,12,04,340,27,14,14,042,22*76

$GPGSV,4,3,13,17,47,264,36,18,18,131,30,19,41,292,27,23,55,183,34*71

$GPGSV,4,4,13,31,20,060,24*4B

$GPGLL,4855.89286,N,00203.10023,E,060727.00,A,A*6D

$GPRMC,060728.00,A,4855.89291,N,00203.10023,E,0.136,,070120,,,A*7D

$GPVTG,,T,,M,0.136,N,0.253,K,A*23

$GPGGA,060728.00,4855.89291,N,00203.10023,E,1,08,1.13,33.1,M,46.1,M,,*68

$GPGSA,A,3,01,23,31,11,17,09,19,03,,,,,2.92,1.13,2.69*03

$GPGSV,4,1,13,01,42,130,27,03,77,044,07,04,57,174,18,06,21,305,25*73

$GPGSV,4,2,13,09,30,201,22,11,22,155,30,12,04,340,27,14,14,042,22*75

$GPGSV,4,3,13,17,47,264,36,18,18,131,29,19,41,292,27,23,55,183,34*79

$GPGSV,4,4,13,31,20,060,25*4A

$GPGLL,4855.89291,N,00203.10023,E,060728.00,A,A*64

$GPRMC,060729.00,A,4855.89293,N,00203.10024,E,0.022,,070120,,,A*7D

$GPVTG,,T,,M,0.022,N,0.041,K,A*26

$GPGGA,060729.00,4855.89293,N,00203.10024,E,1,08,1.13,32.9,M,46.1,M,,*65

$GPGSA,A,3,01,23,31,11,17,09,19,03,,,,,2.92,1.13,2.69*03

$GPGSV,4,1,13,01,42,130,27,03,77,044,07,04,57,174,18,06,21,305,25*73

$GPGSV,4,2,13,09,30,201,22,11,22,155,30,12,04,340,27,14,14,042,22*75

$GPGSV,4,3,13,17,47,263,36,18,18,131,29,19,41,292,27,23,55,183,34*7E

$GPGSV,4,4,13,31,20,060,25*4A

$GPGLL,4855.89293,N,00203.10024,E,060729.00,A,A*60

$GPRMC,060730.00,A,4855.89288,N,00203.10014,E,0.209,,070120,,,A*77

$GPVTG,,T,,M,0.209,N,0.386,K,A*25

$GPGGA,060730.00,4855.89288,N,00203.10014,E,1,08,1.13,32.9,M,46.1,M,,*64

$GPGSA,A,3,01,23,31,11,17,09,19,03,,,,,2.92,1.13,2.69*03

$GPGSV,4,1,13,01,42,130,27,03,77,044,07,04,57,174,19,06,21,305,25*72

$GPGSV,4,2,13,09,30,201,23,11,22,155,30,12,04,340,27,14,14,042,22*74

$GPGSV,4,3,13,17,47,263,36,18,18,131,29,19,41,292,27,23,55,183,34*7E

$GPGSV,4,4,13,31,20,060,25*4A

$GPGLL,4855.89288,N,00203.10014,E,060730.00,A,A*61

$GPRMC,060731.00,A,4855.89287,N,00203.10007,E,0.284,,070120,,,A*7E

$GPVTG,,T,,M,0.284,N,0.525,K,A*2F

$GPGGA,060731.00,4855.89287,N,00203.10007,E,1,08,1.13,32.9,M,46.1,M,,*68

$GPGSA,A,3,01,23,31,11,17,09,19,03,,,,,2.92,1.13,2.69*03

$GPGSV,4,1,13,01,42,130,27,03,77,044,07,04,57,174,19,06,21,305,25*72

$GPGSV,4,2,13,09,30,201,23,11,22,155,30,12,04,340,27,14,14,042,22*74

$GPGSV,4,3,13,17,47,263,36,18,18,131,29,19,41,291,27,23,55,183,34*7D

$GPGSV,4,4,13,31,20,060,25*4A

$GPGLL,4855.89287,N,00203.10007,E,060731.00,A,A*6D

$GPRMC,060732.00,A,4855.89289,N,00203.10007,E,0.206,,070120,,,A*79

$GPVTG,,T,,M,0.206,N,0.382,K,A*2E

$GPGGA,060732.00,4855.89289,N,00203.10007,E,1,08,1.13,33.0,M,46.1,M,,*6D

$GPGSA,A,3,01,23,31,11,17,09,19,03,,,,,2.92,1.13,2.69*03

$GPGSV,4,1,13,01,42,130,27,03,77,044,08,04,57,174,20,06,21,305,25*77

$GPGSV,4,2,13,09,30,201,23,11,22,155,30,12,04,340,27,14,14,042,22*74

$GPGSV,4,3,13,17,47,263,36,18,18,131,29,19,41,291,27,23,55,183,34*7D

$GPGSV,4,4,13,31,20,060,25*4A

$GPGLL,4855.89289,N,00203.10007,E,060732.00,A,A*60

$GPRMC,060733.00,A,4855.89290,N,00203.10003,E,0.181,,070120,,,A*78

$GPVTG,,T,,M,0.181,N,0.335,K,A*2E

$GPGGA,060733.00,4855.89290,N,00203.10003,E,1,08,1.13,33.0,M,46.1,M,,*60

$GPGSA,A,3,01,23,31,11,17,09,19,03,,,,,2.92,1.13,2.69*03

$GPGSV,4,1,13,01,42,130,27,03,77,044,08,04,57,174,20,06,21,305,25*77

$GPGSV,4,2,13,09,30,201,23,11,22,155,30,12,04,340,27,14,14,042,22*74

$GPGSV,4,3,13,17,47,263,36,18,18,131,29,19,41,291,28,23,55,183,34*72

$GPGSV,4,4,13,31,20,060,25*4A

$GPGLL,4855.89290,N,00203.10003,E,060733.00,A,A*6D

$GPRMC,060734.00,A,4855.89299,N,00203.10003,E,0.027,,070120,,,A*7B

$GPVTG,,T,,M,0.027,N,0.049,K,A*2B

$GPGGA,060734.00,4855.89299,N,00203.10003,E,1,08,1.13,33.1,M,46.1,M,,*6F

$GPGSA,A,3,01,23,31,11,17,09,19,03,,,,,2.92,1.13,2.69*03

$GPGSV,4,1,13,01,42,130,27,03,77,044,08,04,57,174,21,06,21,305,25*76

$GPGSV,4,2,13,09,30,201,23,11,22,155,30,12,04,340,27,14,14,042,23*75

$GPGSV,4,3,13,17,47,263,35,18,18,131,29,19,41,291,28,23,55,183,34*71

$GPGSV,4,4,13,31,20,060,25*4A

$GPGLL,4855.89299,N,00203.10003,E,060734.00,A,A*63

$GPRMC,060735.00,A,4855.89309,N,00203.10013,E,0.209,,070120,,,A*7D

$GPVTG,,T,,M,0.209,N,0.387,K,A*24

$GPGGA,060735.00,4855.89309,N,00203.10013,E,1,08,1.13,33.3,M,46.1,M,,*65

$GPGSA,A,3,01,23,31,11,17,09,19,03,,,,,2.92,1.13,2.69*03

$GPGSV,4,1,13,01,42,130,28,03,77,044,08,04,57,174,21,06,21,305,25*79

$GPGSV,4,2,13,09,30,201,24,11,22,155,29,12,04,340,27,14,14,042,22*7B

$GPGSV,4,3,13,17,47,263,36,18,18,131,29,19,41,291,28,23,55,182,33*74

$GPGSV,4,4,13,31,20,060,25*4A

$GPGLL,4855.89309,N,00203.10013,E,060735.00,A,A*6B

$GPRMC,060736.00,A,4855.89316,N,00203.10018,E,0.085,,070120,,,A*7D

$GPVTG,,T,,M,0.085,N,0.157,K,A*2D

$GPGGA,060736.00,4855.89316,N,00203.10018,E,1,08,1.13,33.4,M,46.1,M,,*64

$GPGSA,A,3,01,23,31,11,17,09,19,03,,,,,2.92,1.13,2.69*03

$GPGSV,4,1,13,01,42,130,29,03,77,044,08,04,57,174,21,06,21,305,25*78

$GPGSV,4,2,13,09,30,201,25,11,22,155,28,12,04,340,27,14,14,042,22*7B

$GPGSV,4,3,13,17,47,263,35,18,18,131,30,19,41,291,27,23,55,182,34*77

$GPGSV,4,4,13,31,20,060,25*4A

$GPGLL,4855.89316,N,00203.10018,E,060736.00,A,A*6D

$GPRMC,060737.00,A,4855.89323,N,00203.10027,E,0.222,,070120,,,A*79

$GPVTG,,T,,M,0.222,N,0.411,K,A*25

$GPGGA,060737.00,4855.89323,N,00203.10027,E,1,08,1.13,33.7,M,46.1,M,,*6C

$GPGSA,A,3,01,23,31,11,17,09,19,03,,,,,2.92,1.13,2.69*03

$GPGSV,4,1,13,01,42,130,28,03,77,044,08,04,57,174,19,06,21,305,25*72

$GPGSV,4,2,13,09,30,201,25,11,22,155,28,12,04,340,26,14,14,042,23*7B

$GPGSV,4,3,13,17,47,263,36,18,18,131,29,19,41,291,27,23,55,182,33*7B

$GPGSV,4,4,13,31,20,060,25*4A

$GPGLL,4855.89323,N,00203.10027,E,060737.00,A,A*66

$GPRMC,060738.00,A,4855.89325,N,00203.10029,E,0.068,,070120,,,A*72

$GPVTG,,T,,M,0.068,N,0.126,K,A*28

$GPGGA,060738.00,4855.89325,N,00203.10029,E,1,08,1.13,33.9,M,46.1,M,,*65

$GPGSA,A,3,01,23,31,11,17,09,19,03,,,,,2.92,1.13,2.69*03

$GPGSV,4,1,13,01,42,130,29,03,77,044,09,04,57,174,19,06,21,305,25*72

$GPGSV,4,2,13,09,30,201,26,11,22,155,28,12,04,340,27,14,14,042,23*79

$GPGSV,4,3,13,17,47,263,35,18,18,131,29,19,41,291,27,23,55,182,34*7F

$GPGSV,4,4,13,31,20,060,25*4A

$GPGLL,4855.89325,N,00203.10029,E,060738.00,A,A*61

$GPRMC,060739.00,A,4855.89330,N,00203.10035,E,0.094,,070120,,,A*79

$GPVTG,,T,,M,0.094,N,0.173,K,A*2B

$GPGGA,060739.00,4855.89330,N,00203.10035,E,1,08,1.13,34.2,M,46.1,M,,*61

$GPGSA,A,3,01,23,31,11,17,09,19,03,,,,,2.92,1.13,2.69*03

$GPGSV,4,1,13,01,42,130,28,03,77,044,09,04,57,174,20,06,21,305,25*79

$GPGSV,4,2,13,09,30,201,25,11,22,155,29,12,04,340,27,14,14,042,23*7B

$GPGSV,4,3,13,17,47,263,35,18,18,131,28,19,41,291,27,23,55,182,34*7E

$GPGSV,4,4,13,31,20,060,25*4A

$GPGLL,4855.89330,N,00203.10035,E,060739.00,A,A*69

$GPRMC,060740.00,A,4855.89338,N,00203.10041,E,0.022,,070120,,,A*71

$GPVTG,,T,,M,0.022,N,0.040,K,A*27

$GPGGA,060740.00,4855.89338,N,00203.10041,E,1,08,1.13,34.3,M,46.1,M,,*65

$GPGSA,A,3,01,23,31,11,17,09,19,03,,,,,2.92,1.13,2.69*03

$GPGSV,4,1,13,01,42,130,27,03,77,044,09,04,57,174,22,06,21,305,25*74

$GPGSV,4,2,13,09,30,201,25,11,22,155,29,12,04,340,27,14,14,042,22*7A

$GPGSV,4,3,13,17,47,263,35,18,18,131,28,19,41,291,28,23,55,182,34*71

$GPGSV,4,4,13,31,20,060,25*4A

$GPGLL,4855.89338,N,00203.10041,E,060740.00,A,A*6C

$GPRMC,060741.00,A,4855.89344,N,00203.10049,E,0.242,,070120,,,A*77

$GPVTG,,T,,M,0.242,N,0.448,K,A*2F

$GPGGA,060741.00,4855.89344,N,00203.10049,E,1,07,1.13,34.2,M,46.1,M,,*69

$GPGSA,A,3,01,23,31,11,17,09,19,,,,,,2.92,1.13,2.69*00

$GPGSV,4,1,13,01,42,130,27,03,77,044,,04,57,174,22,06,21,305,25*7D

$GPGSV,4,2,13,09,30,201,25,11,22,155,30,12,04,340,27,14,14,042,23*73

$GPGSV,4,3,13,17,47,263,35,18,18,131,28,19,41,291,28,23,55,182,34*71

$GPGSV,4,4,13,31,20,060,25*4A

$GPGLL,4855.89344,N,00203.10049,E,060741.00,A,A*6E

$GPRMC,060742.00,A,4855.89348,N,00203.10050,E,0.203,,070120,,,A*75

$GPVTG,,T,,M,0.203,N,0.376,K,A*20

$GPGGA,060742.00,4855.89348,N,00203.10050,E,1,08,1.13,34.7,M,46.1,M,,*64

$GPGSA,A,3,01,23,31,11,17,09,19,03,,,,,2.92,1.13,2.69*03

$GPGSV,4,1,13,01,42,130,26,03,77,044,21,04,57,174,23,06,21,305,25*7E

$GPGSV,4,2,13,09,30,201,25,11,22,155,29,12,04,340,27,14,14,042,23*7B

$GPGSV,4,3,13,17,47,263,35,18,18,131,28,19,41,291,28,23,55,182,34*71

$GPGSV,4,4,13,31,20,060,24*4B

$GPGLL,4855.89348,N,00203.10050,E,060742.00,A,A*69

$GPRMC,060743.00,A,4855.89355,N,00203.10056,E,0.270,,070120,,,A*7A

$GPVTG,,T,,M,0.270,N,0.501,K,A*22

$GPGGA,060743.00,4855.89355,N,00203.10056,E,1,08,1.13,34.6,M,46.1,M,,*6E

$GPGSA,A,3,01,23,31,11,17,09,19,03,,,,,2.92,1.13,2.69*03

$GPGSV,4,1,13,01,42,130,26,03,77,044,21,04,57,174,22,06,21,305,25*7F

$GPGSV,4,2,13,09,30,201,25,11,22,155,29,12,04,340,27,14,14,042,22*7A

$GPGSV,4,3,13,17,47,263,35,18,18,131,28,19,41,291,28,23,55,182,34*71

$GPGSV,4,4,13,31,20,060,24*4B

$GPGLL,4855.89355,N,00203.10056,E,060743.00,A,A*62

$GPRMC,060744.00,A,4855.89353,N,00203.10053,E,0.233,,070120,,,A*79

$GPVTG,,T,,M,0.233,N,0.432,K,A*24

$GPGGA,060744.00,4855.89353,N,00203.10053,E,1,08,1.05,34.1,M,46.1,M,,*6A

$GPGSA,A,3,01,23,31,11,17,09,19,03,,,,,2.16,1.05,1.89*05

$GPGSV,4,1,13,01,42,130,26,03,77,044,21,04,57,174,22,06,21,305,25*7F

$GPGSV,4,2,13,09,30,201,25,11,22,155,29,12,04,340,27,14,14,042,22*7A

$GPGSV,4,3,13,17,47,263,35,18,18,131,28,19,41,291,28,23,55,182,34*71

$GPGSV,4,4,13,31,20,060,24*4B

$GPGLL,4855.89353,N,00203.10053,E,060744.00,A,A*66

$GPRMC,060745.00,A,4855.89345,N,00203.10041,E,0.093,,070120,,,A*74

$GPVTG,,T,,M,0.093,N,0.172,K,A*2D

$GPGGA,060745.00,4855.89345,N,00203.10041,E,1,08,1.05,33.9,M,46.1,M,,*60

$GPGSA,A,3,01,23,31,11,17,09,19,03,,,,,2.16,1.05,1.89*05

$GPGSV,4,1,13,01,42,130,26,03,77,044,22,04,57,174,23,06,21,305,25*7D

$GPGSV,4,2,13,09,30,201,25,11,22,155,29,12,04,340,27,14,14,042,22*7A

$GPGSV,4,3,13,17,47,263,35,18,18,131,28,19,41,291,28,23,55,182,34*71

$GPGSV,4,4,13,31,20,060,24*4B

$GPGLL,4855.89345,N,00203.10041,E,060745.00,A,A*63

$GPRMC,060746.00,A,4855.89362,N,00203.10061,E,1.419,30.22,070120,,,A*5A

$GPVTG,30.22,T,,M,1.419,N,2.628,K,A*0D

$GPGGA,060746.00,4855.89362,N,00203.10061,E,1,08,1.05,33.4,M,46.1,M,,*69

$GPGSA,A,3,01,23,31,11,17,09,19,03,,,,,2.16,1.05,1.89*05

$GPGSV,4,1,13,01,42,130,26,03,77,044,22,04,57,174,23,06,21,305,25*7D

$GPGSV,4,2,13,09,30,201,25,11,22,155,29,12,04,340,27,14,14,042,23*7B

$GPGSV,4,3,13,17,47,263,35,18,18,131,28,19,41,291,28,23,55,182,34*71

$GPGSV,4,4,13,31,20,060,23*4C

$GPGLL,4855.89362,N,00203.10061,E,060746.00,A,A*67

$GPRMC,060747.00,A,4855.89371,N,00203.10067,E,0.620,,070120,,,A*7B

$GPVTG,,T,,M,0.620,N,1.148,K,A*2B

$GPGGA,060747.00,4855.89371,N,00203.10067,E,1,08,1.05,33.1,M,46.1,M,,*69

$GPGSA,A,3,01,23,31,11,17,09,19,03,,,,,2.16,1.05,1.89*05

$GPGSV,4,1,13,01,42,130,26,03,77,044,23,04,57,174,23,06,21,305,25*7C

$GPGSV,4,2,13,09,30,201,26,11,22,155,29,12,04,340,27,14,14,042,22*79

$GPGSV,4,3,13,17,47,263,34,18,18,131,27,19,41,291,28,23,55,182,34*7F

$GPGSV,4,4,13,31,20,060,23*4C

$GPGLL,4855.89371,N,00203.10067,E,060747.00,A,A*62

$GPRMC,060748.00,A,4855.89370,N,00203.10061,E,0.189,,070120,,,A*77

$GPVTG,,T,,M,0.189,N,0.350,K,A*25

$GPGGA,060748.00,4855.89370,N,00203.10061,E,1,08,1.05,32.9,M,46.1,M,,*68

$GPGSA,A,3,01,23,31,11,17,09,19,03,,,,,2.16,1.05,1.89*05

$GPGSV,4,1,13,01,42,130,26,03,77,044,23,04,57,174,23,06,21,305,25*7C

$GPGSV,4,2,13,09,30,201,26,11,22,155,29,12,04,340,27,14,14,042,22*79

$GPGSV,4,3,13,17,47,263,34,18,18,131,27,19,41,291,28,23,55,182,34*7F

$GPGSV,4,4,13,31,20,060,23*4C

$GPGLL,4855.89370,N,00203.10061,E,060748.00,A,A*6A

$GPRMC,060749.00,A,4855.89378,N,00203.10071,E,0.116,,070120,,,A*79

$GPVTG,,T,,M,0.116,N,0.214,K,A*22

$GPGGA,060749.00,4855.89378,N,00203.10071,E,1,09,1.00,33.0,M,46.1,M,,*6C

$GPGSA,A,3,01,23,06,31,11,17,09,19,03,,,,2.46,1.00,2.25*06

$GPGSV,4,1,13,01,42,130,26,03,77,044,24,04,57,174,24,06,21,305,25*7C

$GPGSV,4,2,13,09,30,201,26,11,22,155,29,12,04,340,27,14,14,042,22*79

$GPGSV,4,3,13,17,47,263,34,18,18,131,27,19,41,291,28,23,55,182,34*7F

$GPGSV,4,4,13,31,20,060,23*4C

$GPGLL,4855.89378,N,00203.10071,E,060749.00,A,A*62

$GPRMC,060750.00,A,4855.89386,N,00203.10076,E,0.094,,070120,,,A*7C

$GPVTG,,T,,M,0.094,N,0.174,K,A*2C

$GPGGA,060750.00,4855.89386,N,00203.10076,E,1,09,1.00,32.9,M,46.1,M,,*6A

$GPGSA,A,3,01,23,06,31,11,17,09,19,03,,,,2.46,1.00,2.25*06

$GPGSV,4,1,13,01,42,130,26,03,77,044,24,04,57,174,24,06,21,305,25*7C

$GPGSV,4,2,13,09,30,201,26,11,22,155,29,12,04,340,27,14,14,042,22*79

$GPGSV,4,3,13,17,47,263,34,18,18,131,27,19,41,291,28,23,55,182,34*7F

$GPGSV,4,4,13,31,20,060,23*4C

$GPGLL,4855.89386,N,00203.10076,E,060750.00,A,A*6C

$GPRMC,060751.00,A,4855.89400,N,00203.10087,E,0.233,,070120,,,A*75

$GPVTG,,T,,M,0.233,N,0.432,K,A*24

$GPGGA,060751.00,4855.89400,N,00203.10087,E,1,09,1.00,33.0,M,46.1,M,,*64

$GPGSA,A,3,01,23,06,31,11,17,09,19,03,,,,2.46,1.00,2.25*06

$GPGSV,4,1,13,01,42,130,27,03,77,044,25,04,57,174,24,06,21,305,25*7C

$GPGSV,4,2,13,09,30,201,27,11,22,155,29,12,04,340,27,14,14,042,21*7B

$GPGSV,4,3,13,17,47,263,34,18,18,131,27,19,41,291,28,23,55,182,34*7F

$GPGSV,4,4,13,31,20,060,22*4D

$GPGLL,4855.89400,N,00203.10087,E,060751.00,A,A*6A

$GPRMC,060752.00,A,4855.89408,N,00203.10088,E,0.386,,070120,,,A*7E

$GPVTG,,T,,M,0.386,N,0.715,K,A*2D

$GPGGA,060752.00,4855.89408,N,00203.10088,E,1,09,1.00,33.6,M,46.1,M,,*66

$GPGSA,A,3,01,23,06,31,11,17,09,19,03,,,,2.46,1.00,2.25*06

$GPGSV,4,1,13,01,42,130,26,03,77,044,25,04,57,174,23,06,21,305,25*7A

$GPGSV,4,2,13,09,30,201,27,11,22,155,30,12,04,340,27,14,14,042,21*73

$GPGSV,4,3,13,17,47,263,34,18,18,131,27,19,41,291,29,23,55,182,34*7E

$GPGSV,4,4,13,31,20,060,22*4D

$GPGLL,4855.89408,N,00203.10088,E,060752.00,A,A*6E

$GPRMC,060753.00,A,4855.89423,N,00203.10101,E,0.534,,070120,,,A*79

$GPVTG,,T,,M,0.534,N,0.989,K,A*29

$GPGGA,060753.00,4855.89423,N,00203.10101,E,1,09,1.00,33.3,M,46.1,M,,*6B

$GPGSA,A,3,01,23,06,31,11,17,09,19,03,,,,2.46,1.00,2.25*06

$GPGSV,4,1,13,01,42,130,26,03,77,044,25,04,57,174,23,06,21,305,25*7A

$GPGSV,4,2,13,09,30,201,27,11,22,155,29,12,04,340,27,14,14,042,21*7B

$GPGSV,4,3,13,17,47,263,34,18,18,131,27,19,41,291,29,23,55,182,34*7E

$GPGSV,4,4,13,31,20,060,22*4D

$GPGLL,4855.89423,N,00203.10101,E,060753.00,A,A*66

$GPRMC,060754.00,A,4855.89435,N,00203.10113,E,0.323,,070120,,,A*7A

$GPVTG,,T,,M,0.323,N,0.598,K,A*25

$GPGGA,060754.00,4855.89435,N,00203.10113,E,1,09,1.00,33.3,M,46.1,M,,*68

$GPGSA,A,3,01,23,06,31,11,17,09,19,03,,,,2.46,1.00,2.25*06

$GPGSV,4,1,13,01,42,130,27,03,77,044,25,04,57,174,24,06,21,305,25*7C

$GPGSV,4,2,13,09,30,201,27,11,22,155,29,12,04,340,27,14,14,042,22*78

$GPGSV,4,3,13,17,47,263,34,18,18,131,27,19,41,291,29,23,55,182,34*7E

$GPGSV,4,4,13,31,20,060,22*4D

$GPGLL,4855.89435,N,00203.10113,E,060754.00,A,A*65

$GPRMC,060755.00,A,4855.89446,N,00203.10126,E,0.304,,070120,,,A*7C

$GPVTG,,T,,M,0.304,N,0.563,K,A*24

$GPGGA,060755.00,4855.89446,N,00203.10126,E,1,09,1.00,33.3,M,46.1,M,,*6B

$GPGSA,A,3,01,23,06,31,11,17,09,19,03,,,,2.46,1.00,2.25*06

$GPGSV,4,1,13,01,42,130,27,03,77,044,25,04,57,174,24,06,21,305,26*7F

$GPGSV,4,2,13,09,30,201,27,11,22,155,29,12,04,340,28,14,14,042,22*77

$GPGSV,4,3,13,17,47,263,34,18,18,131,26,19,41,291,29,23,55,182,34*7F

$GPGSV,4,4,13,31,20,060,21*4E

$GPGLL,4855.89446,N,00203.10126,E,060755.00,A,A*66

$GPRMC,060756.00,A,4855.89452,N,00203.10129,E,0.244,,070120,,,A*70

$GPVTG,,T,,M,0.244,N,0.451,K,A*21

$GPGGA,060756.00,4855.89452,N,00203.10129,E,1,09,1.00,33.8,M,46.1,M,,*69

$GPGSA,A,3,01,23,06,31,11,17,09,19,03,,,,2.46,1.00,2.25*06

$GPGSV,4,1,13,01,42,130,27,03,77,044,23,04,57,174,23,06,21,305,26*7E

